Venue ID,Latitude,Longitude,Venue Category Name,Country Code
4b4c465ef964a52058b026e3,-1.295475,36.813869,Building,KE
4b4ee18ef964a520bff626e3,-1.282402,36.816114,Building,KE
4b4ef0aff964a52065f726e3,-1.279793,36.815488,Fast Food Restaurant,KE
4b50e0f1f964a5209a3627e3,-1.286188,36.792073,Beer Garden,KE
4b522f85f964a520336e27e3,-1.294844,36.797042,Nightclub,KE
4b53046ef964a520b58c27e3,-1.2983,36.762157,Coffee Shop,KE
4b65d89df964a520a9032be3,-1.278195,36.816398,Hotel,KE
4b6cdfb0f964a520db5a2ce3,-1.282672,36.817775,Coffee Shop,KE
4b743a5ef964a52063ce2de3,-1.317278,36.835463,Department Store,KE
4b777d63f964a520ae9d2ee3,-1.260602,36.825466,Other Great Outdoors,KE
4b7e6d35f964a520a7ec2fe3,-1.278988,36.811408,Pool,KE
4b820adff964a520dfc830e3,-1.282686,36.820319,Restaurant,KE
4b8761fef964a520d5bd31e3,-1.322893,36.801952,Lounge,KE
4b8763baf964a52007be31e3,-1.299237,36.765404,Brewery,KE
4b894192f964a5205e2632e3,-1.259801,36.838886,Food & Drink Shop,KE
4b8a666df964a5205d6b32e3,-1.26103,36.802102,Mall,KE
4b8a6801f964a520966b32e3,-1.299687,36.811752,Restaurant,KE
4b8fb335f964a520bf5d33e3,-1.286194,36.820593,Chinese Restaurant,KE
4b909138f964a5205b9033e3,-1.292715,36.787505,Mall,KE
4b913e15f964a52094ac33e3,-1.297821,36.782184,Lounge,KE
4b914370f964a5202eae33e3,-1.287888,36.819413,Hotel,KE
4b920a99f964a5209de433e3,-1.285322,36.824336,Hotel,KE
4b93539bf964a520334034e3,-1.288356,36.822202,Convention Center,KE
4b936146f964a5200d4234e3,-1.28508,36.822927,Coffee Shop,KE
4b93a034f964a520c24a34e3,-1.263454,36.806817,Restaurant,KE
4b93f23bf964a520ee5b34e3,-1.301839,36.825345,Department Store,KE
4b943fbef964a520147134e3,-1.284392,36.82276,Hotel,KE
4b95251ff964a520479134e3,-1.285399,36.822249,Italian Restaurant,KE
4b97de9bf964a5206c1b35e3,-1.284216,36.81778,Coffee Shop,KE
4b98c1dff964a520674e35e3,-1.300073,36.786861,Mall,KE
4b9b83e4f964a520530c36e3,-1.312623,36.816902,Sports Bar,KE
4b9c9ec7f964a520217336e3,-1.323735,36.803255,Grocery Store,KE
4b9ccd54f964a520407c36e3,-1.281731,36.81819,Burger Joint,KE
4b9e4a54f964a520a1d736e3,-1.285526,36.823138,Coffee Shop,KE
4b9e8750f964a52011ec36e3,-1.32691,36.786604,General Travel,KE
4ba37713f964a5206f3f38e3,-1.277386,36.811981,University,KE
4ba3a14cf964a520ce4d38e3,-1.300009,36.811581,Restaurant,KE
4ba4846cf964a520dfa138e3,-1.291181,36.819978,Gym,KE
4ba577baf964a520220a39e3,-1.290398,36.827202,Bus Line,KE
4bab4654f964a520189d3ae3,-1.292265,36.815529,African Restaurant,KE
4bac69f8f964a52018f43ae3,-1.32736,36.852382,Building,KE
4bad4b40f964a52005433be3,-1.331453,36.889341,Karaoke Bar,KE
4badb3f2f964a52030643be3,-1.288982,36.807675,Church,KE
4bae4493f964a520e59a3be3,-1.262465,36.801717,Hotel,KE
4baf0f58f964a5203ae93be3,-1.299408,36.781454,Medical Center,KE
4baf4eecf964a520eef63be3,-1.257351,36.803158,Mall,KE
4bb0ae59f964a52080543ce3,-1.273112,36.81134,Office,KE
4bb0b198f964a52078553ce3,-1.283477,36.819458,Miscellaneous Shop,KE
4bb38072715eef3be56986bb,-1.2918,36.810194,Hotel,KE
4bb3820f715eef3b9b6c86bb,-1.323215,36.707779,Mall,KE
4bb4c9b2bc82a593a4d13e72,-1.224729,36.883432,Hotel,KE
4bb9f3f5935e952194882790,-1.318672,36.813962,Airport,KE
4bb9f9d71261d13a240cea98,-1.238873,36.811817,Caf,KE
4bba71c83db7b7136753239a,-1.284692,36.822857,Arcade,KE
4bba74453db7b7135357239a,-1.282112,36.821703,Bar,KE
4bba75223db7b713a958239a,-1.284359,36.823683,Pub,KE
4bba75cb3db7b713a959239a,-1.28489,36.823989,Nightclub,KE
4bba79ea3db7b7132160239a,-1.290119,36.821274,Government Building,KE
4bba7dc53db7b7131666239a,-1.300309,36.79038,Department Store,KE
4bbac9b6935e9521928d2890,-1.286108,36.822996,Hotel,KE
4bbb79e1cdb3c9b60e68dea6,-1.300567,36.780725,Mall,KE
4bbb7c6fcdb3c9b6b26bdea6,-1.299966,36.790853,Grocery Store,KE
4bbb7d89cdb3c9b6796ddea6,-1.301253,36.770725,Stadium,KE
4bbb8161e436ef3b056b5564,-1.29855,36.763,Grocery Store,KE
4bbb8eebe436ef3b347e5564,-1.31155,36.758709,Racetrack,KE
4bbbc0c3e436ef3b4ac85564,-1.281174,36.817975,Mall,KE
4bbbc75de436ef3bd0d35564,-1.300695,36.780338,American Restaurant,KE
4bbc57ffafe1b7138b44304b,-1.285872,36.823082,Coffee Shop,KE
4bbf56d085fbb71309fd7167,-1.264314,36.804247,Pub,KE
4bbf8c4474a9a5937ca4cef6,-1.288639,36.789694,Hookah Bar,KE
4bc23656920eb71396de1b2c,-1.257061,36.803341,Caf,KE
4bc2eccd4cdfc9b6d6a49621,-1.25929,36.785809,Office,KE
4bc32cb0dce4eee10a7a719d,-1.280999,36.821119,Hotel,KE
4bc33299dce4eee16b7c719d,-1.286987,36.814615,Hotel,KE
4bc3fba9abf49521d78fc493,-1.286019,36.805819,Road,KE
4bc5cb236a3e9c74cf4cf648,-1.317778,36.838592,Building,KE
4bc5d8e44a9aa59389ff067b,-1.284681,36.818903,African Restaurant,KE
4bc606ebdb8fa59309a19b37,-1.325322,36.848531,Office,KE
4bc6f9860050b71379cdb73b,-1.219567,36.879177,University,KE
4bc71c990050b7139706b83b,-1.284126,36.82135,Strip Club,KE
4bc8eaaa762beee190b13d38,-1.280664,36.817612,Hotel,KE
4bc9924d3740b713e4eb5e65,-1.287341,36.82496,Fast Food Restaurant,KE
4bcaf4f63740b713d7966165,-1.244461,36.769654,Asian Restaurant,KE
4bcc70140687ef3b5132dfcc,-1.256975,36.803384,Movie Theater,KE
4bcf75320ffdce728780b2c0,-1.210191,36.851368,Hotel,KE
4bcf947aa8b3a5933290625f,-1.299826,36.789849,Fast Food Restaurant,KE
4bd134d9a8b3a593727d655f,-1.2662,36.805744,General College & University,KE
4bd1827b462cb713db46da07,-1.305425,36.824809,Soccer Stadium,KE
4bd183eba8b3a593cbce655f,-1.282598,36.817791,Coffee Shop,KE
4bd1a96e5e0cce72b6cca184,-1.262554,36.808853,Hotel,KE
4bd1cf609854d13ac83efa4d,-1.309065,36.811529,American Restaurant,KE
4bd2eb8277b29c7477888f82,-1.289197,36.813684,Church,KE
4bd30856b221c9b64aaad8d0,-1.299386,36.790703,Movie Theater,KE
4bd324a877b29c7473059082,-1.273623,36.814241,Museum,KE
4bd33bd7caff9521dd5cd4f0,-1.301501,36.771349,Field,KE
4bd379f7046076b026367671,-1.283105,36.815993,Ethiopian Restaurant,KE
4bd45f12b221c9b6c263dbd0,-1.284665,36.820619,Burger Joint,KE
4bd53f167b1876b0e2848a86,-1.296534,36.813769,Office,KE
4bd54b256798ef3b882a638d,-1.323005,36.843767,Road,KE
4bd581bb4e32d13af5e2c080,-1.262381,36.80553,Nightclub,KE
4bd588454e32d13a6aeec080,-1.260022,36.801367,Sports Bar,KE
4bd6fca56f649521fbac71ec,-1.283995,36.818511,Tea Room,KE
4bd81f0edc4b9521605d7888,-1.298336,36.791153,Event Space,KE
4bd87926dc4b9521123c7988,-1.263465,36.804339,Pub,KE
4bd910630115c9b631677680,-1.28537,36.78583,Hotel,KE
4bda56530ef39c7494b21d2d,-1.260923,36.801581,Caf,KE
4bdb445ec712b71317a063b4,-1.288901,36.789974,Italian Restaurant,KE
4bdbb8f7c79cc9283a4984e9,-1.258833,36.80483,BBQ Joint,KE
4bdc6369afe8c9b6e92e4f85,-1.292372,36.77978,Ethiopian Restaurant,KE
4bdc70924b1f9521a8ce670b,-1.262103,36.824219,Hospital,KE
4bdd9f603f720f4746748ae7,-1.316904,36.81369,Lounge,KE
4bdecb31fe0e62b581f40506,-1.285511,36.820456,Hotel,KE
4bdecb34fe0e62b585f40506,-1.275111,36.813033,Hotel Bar,KE
4bdecb3bfe0e62b589f40506,-1.328976,36.855866,Hotel,KE
4bdecb73fe0e62b5bdf40506,-1.226803,36.805377,Hotel,KE
4bdeec7a0d69b7133f0966d3,-1.286065,36.820335,Sandwich Place,KE
4bdef13717fdef3b3cb14e36,-1.306068,36.82391,Hotel,KE
4be06ea04c55b651b16eeab7,-1.286466,36.881546,Hotel,KE
4be1202a2b27ef3b21da746a,-1.300387,36.8238,Bank,KE
4be1487cea6e20a1d6f79267,-1.3035,36.831422,Art Gallery,KE
4be15a6ec1732d7ff0ba5b9a,-1.29293,36.782312,High School,KE
4be195984ed5c9b6c2b8ccce,-1.29973,36.790252,Burger Joint,KE
4be19b4c8dd062b5ee693e3c,-1.29453,36.803021,Hotel,KE
4be19b568dd062b5f1693e3c,-1.289258,36.807538,Hotel,KE
4be19b9a8dd062b53b6a3e3c,-1.223478,36.900034,Hotel,KE
4be19ce28dd062b5ff6a3e3c,-1.281223,36.818489,Hotel,KE
4be19ce48dd062b5026b3e3c,-1.325303,36.846055,Hotel,KE
4be3c32521d5a59387fb1911,-1.283561,36.819644,Home (private),KE
4be40edf2468c928c236fe42,-1.268817,36.79953,Office,KE
4be4578b2468c92871a2fe42,-1.309092,36.704781,Gastropub,KE
4be464b92468c928c1b5fe42,-1.268264,36.81144,Nightclub,KE
4be4741f5254d13abe6f60e1,-1.268989,36.812396,Bar,KE
4be557952457a593a957ab15,-1.292329,36.789522,American Restaurant,KE
4be583f8bcef2d7fe5dc03e5,-1.287352,36.82442,Movie Theater,KE
4be58b2d2468c9289d220043,-1.261566,36.802338,Bar,KE
4be5c45ed4f7c9b678e42520,-1.260861,36.794413,Multiplex,KE
4be68a2d8a8cb713ba7dc4a0,-1.285765,36.822996,Coffee Shop,KE
4be7a7c29a54a593f71e0911,-1.29011,36.805356,Office,KE
4be82204a117b713686081c8,-1.228976,36.805001,Indian Restaurant,KE
4be939b388ed2d7f88b0cc1d,-1.261717,36.802401,Movie Theater,KE
4be97fd4ee96c928fe40ffbf,-1.293325,36.787949,Caf,KE
4be9a6db62c0c92827e8dfd4,-1.28849,36.880427,Arcade,KE
4bea43d6a9900f47e1601640,-1.264002,36.811787,Hospital,KE
4bea8fbfa9900f47ba9a1640,-1.295441,36.815824,College Administrative Building,KE
4beaa20161aca593d9ee8300,-1.287163,36.821618,City Hall,KE
4beaa4af415e20a1e338e5bb,-1.287758,36.820141,Church,KE
4beaa9886295c9b6e2a58608,-1.286466,36.817859,Art Gallery,KE
4beabf3562c0c928492fe1d4,-1.295362,36.796864,BBQ Joint,KE
4bebd09362c0c9282b87e2d4,-1.258342,36.851431,African Restaurant,KE
4bebd3e69ab3b713a3ebb549,-1.234482,36.871372,Office,KE
4bec0826f90e9c748397e3ed,-1.264806,36.805015,Bar,KE
4bece5c01059d13a24d651d8,-1.288639,36.827374,Bar,KE
4bed3694e3562d7f4ca5fef8,-1.331189,36.923714,Coffee Shop,KE
4bf00788f831c928b57c01f2,-1.312387,36.816559,Mall,KE
4bf0e92a3a15d13a1c0d3f9f,-1.276172,36.825098,Bed & Breakfast,KE
4bf1177a21072d7fce90208b,-1.284019,36.820099,African Restaurant,KE
4bf2ac0d9f939521d4bd3098,-1.284778,36.82261,Sandwich Place,KE
4bf381a1354e9c74d19b2602,-1.291545,36.825708,University,KE
4bf3be3d98ac0f47622463a8,-1.294045,36.79707,Ethiopian Restaurant,KE
4bf407b5370e76b0a37cbd4a,-1.282847,36.81643,Lounge,KE
4bf50ce494af2d7f613a3b72,-1.284743,36.824977,Road,KE
4bf627605efe2d7f3ac36634,-1.286465,36.816776,Road,KE
4bf67e1a5efe2d7f31326734,-1.308764,36.910893,Building,KE
4bf6c6dd5ec320a17bbb85d3,-1.325794,36.803513,African Restaurant,KE
4bf7da9fc07c9c7409b8bbef,-1.281133,36.818343,Caf,KE
4bf8200092d19521052c5a1f,-1.301468,36.770983,Pub,KE
4bf8b9ffd4cdb713d2d484fe,-1.300824,36.774588,Coffee Shop,KE
4bfa20aa508c0f47a7d23f31,-1.294313,36.805488,Office,KE
4bfa623fbc86952109e47a6b,-1.275972,36.808877,Home (private),KE
4bfc145fb5cd2d7f8a0d31fb,-1.270735,36.774794,Chinese Restaurant,KE
4bfc9a834cf820a12460ebf4,-1.286576,36.823711,Courthouse,KE
4bfc9b98bf6576b05330acb8,-1.287258,36.824604,Building,KE
4bfe3d554cf820a1f793edf4,-1.286611,36.881562,Department Store,KE
4bfe4f22e529c928821ebc8c,-1.286337,36.823721,Bank,KE
4bfeb8adca1920a1f9baeb81,-1.296576,36.887305,Department Store,KE
4bff4e28e584c92898156e25,-1.280144,36.770039,Miscellaneous Shop,KE
4bffa6548d7a9c74cf68fa52,-1.303613,36.811023,BBQ Joint,KE
4bffaeb592a6c928fbe342e2,-1.28833,36.825876,Government Building,KE
4c0284cff56c2d7f9c7d1b66,-1.289061,36.79679,Lounge,KE
4c03567a3f03b713ccf15141,-1.290736,36.785587,Building,KE
4c03b5459a7920a15634d079,-1.287202,36.828904,Bus Station,KE
4c03ce6df423a59377acd016,-1.287885,36.826255,Fast Food Restaurant,KE
4c051d77f56c2d7f29221f66,-1.289626,36.776304,Mexican Restaurant,KE
4c05f93bd3842d7f9afdbe41,-1.257322,36.842449,Golf Course,KE
4c06831ccf8c76b037933a65,-1.28602,36.822817,Restaurant,KE
4c06c0802e80a593639a74f9,-1.290235,36.825745,Building,KE
4c07436f8b4520a162bc8697,-1.314053,36.91691,Conference Room,KE
4c0752a142d4b713b0a4f445,-1.335834,36.77919,Restaurant,KE
4c07813d0e0a2d7ffe63ed0c,-1.293643,36.787795,Coffee Shop,KE
4c078c638b4520a1de058797,-1.293304,36.785661,Tattoo Parlor,KE
4c079f798a81c9b6a0732790,-1.263234,36.803032,Pizza Place,KE
4c07a283cf8c76b0d2413c65,-1.259659,36.776362,Coffee Shop,KE
4c07c92da0129c748496d2c9,-1.282772,36.825013,Other Great Outdoors,KE
4c07e307a1b32d7fc52095f0,-1.268844,36.735778,Housing Development,KE
4c08907f7e3fc928dd9cf082,-1.325332,36.785393,Bus Station,KE
4c089d9c1244b713110aa872,-1.327124,36.788949,Gas Station / Garage,KE
4c0922ac7e3fc9288665f182,-1.28141,36.818597,Burger Joint,KE
4c09291ebbc676b067ad47d5,-1.284754,36.824741,Fast Food Restaurant,KE
4c092adebbc676b02ab147d5,-1.28493,36.824,Pizza Place,KE
4c0a633cbbc676b0b6ae49d5,-1.290993,36.811655,Building,KE
4c0ced782466a59374b97621,-1.290205,36.824142,Government Building,KE
4c0df8b7adcd9c74fe9d02f6,-1.269847,36.723862,College Lab,KE
4c0e937415c2ef3b6b431b08,-1.256989,36.802611,Japanese Restaurant,KE
4c10ab5281e976b04e7d0feb,-1.300605,36.814968,Cocktail Bar,KE
4c10d474b4aeef3b0c5cfc0f,-1.279758,36.81643,University,KE
4c10e9533ce120a1f8c4081c,-1.258616,36.836473,Golf Course,KE
4c10fb12a6c195215b6b36dd,-1.286753,36.819783,Bus Station,KE
4c110604a6c19521886e36dd,-1.300236,36.775446,Housing Development,KE
4c1322bcb7b9c928062ba937,-1.27824,36.830507,Bank,KE
4c1342a77f7f2d7faad7de68,-1.285065,36.824568,Internet Cafe,KE
4c14d68f77cea593162bd160,-1.300376,36.815208,Gym,KE
4c1792d2216fc9b6d29c8f96,-1.285117,36.823984,Fish & Chips Shop,KE
4c18f3fb6a21c9b6d3c2c997,-1.312984,36.916482,Home (private),KE
4c190b03834e2d7ff4c52980,-1.258067,36.787365,Ethiopian Restaurant,KE
4c19b202834e2d7f12df2a80,-1.330001,36.924176,Airport,KE
4c1a6f568b3aa5935f9c955f,-1.259636,36.776635,Lounge,KE
4c1bc0f0b4e62d7f7aebd993,-1.324353,36.803119,Fast Food Restaurant,KE
4c1ca38eb4e62d7f6759db93,-1.299745,36.790438,Pizza Place,KE
4c1cdcbeb306c928777c64b7,-1.286255,36.826286,Nightclub,KE
4c1d06d2eac020a1277947c2,-1.285866,36.824972,Bus Station,KE
4c1dd0b78b3aa593c8389b5f,-1.264999,36.757121,Gas Station / Garage,KE
4c1dd620fcf8c9b6cb6eac0b,-1.300225,36.78735,Cosmetics Shop,KE
4c1df38efcf8c9b65889ac0b,-1.297707,36.801092,Church,KE
4c1df69db306c928795666b7,-1.294987,36.799724,Pub,KE
4c1dfe2063750f47ae0eb967,-1.270963,36.832289,Music Venue,KE
4c1efbfbe923ef3b20a84e54,-1.288371,36.818821,Garden Center,KE
4c20f4bd8082d13a2f7ff82a,-1.257806,36.818196,Mall,KE
4c21a266497cb7132dc66cd8,-1.292543,36.828618,Light Rail,KE
4c23393111de20a1170686ce,-1.265745,36.810462,Office,KE
4c248df2f3859c7414f86488,-1.282467,36.816272,Performing Arts Venue,KE
4c24be93f7ced13ac848236d,-1.284625,36.824383,Fried Chicken Joint,KE
4c2516fcb7b8a593f79e3de8,-1.229465,36.804683,Tapas Restaurant,KE
4c25e00ec11dc9b620ec2724,-1.285529,36.824757,Bus Line,KE
4c25e3e0c9bbef3b768bafac,-1.296405,36.768365,College Academic Building,KE
4c2642365c5ca593c3ce45fe,-1.278802,36.81593,Theater,KE
4c281834ed0ac9b63ad45faa,-1.287591,36.823022,Courthouse,KE
4c282e8ad26eb7133f3214d1,-1.268796,36.806388,Office,KE
4c28a21c783d9c748e558f6b,-1.285399,36.82247,Mall,KE
4c29b1369fb5d13a83829b57,-1.284846,36.817733,Bank,KE
4c29e9b69fb5d13a01cb9b57,-1.285805,36.820591,Restaurant,KE
4c2a16c2783d9c7442a48f6b,-1.283506,36.822028,Fast Food Restaurant,KE
4c2a3f088ef52d7f2e942fba,-1.291865,36.790521,Bar,KE
4c2aea0e2219c928eed8a348,-1.315723,36.92173,Coworking Space,KE
4c2af16eb5fbb713b07849df,-1.282118,36.816419,Office,KE
4c2af3cc355cef3b1e23cd56,-1.28825,36.822638,Convention Center,KE
4c2c64d36e77b713a354775d,-1.281903,36.818662,Pizza Place,KE
4c2c67726e77b7138c55775d,-1.29978,36.790474,Fast Food Restaurant,KE
4c2c6d756e77b7131d58775d,-1.231624,36.803523,Burger Joint,KE
4c2d71ffe116e21e64b68e60,-1.314834,36.808877,Home (private),KE
4c2db8781683b713506b26ec,-1.295461,36.806817,Coffee Shop,KE
4c2de33b260bc92878aa1ad3,-1.29573,36.80371,Doctor's Office,KE
4c2e253d4e132d7f47a19ddf,-1.286609,36.833893,Bus Station,KE
4c2e25e8e307d13ac4050fda,-1.292451,36.84267,Road,KE
4c2fb501213c2d7fc75f315d,-1.257104,36.803212,Casino,KE
4c303ec116adc928acf5be9c,-1.282626,36.811972,Church,KE
4c304c5d09a99c748c060b2a,-1.291693,36.798107,Home (private),KE
4c3057efa0ced13a5e0e126e,-1.255819,36.806108,French Restaurant,KE
4c31d081452620a19313210f,-1.294517,36.812568,Bank,KE
4c31edb516adc9283942c19c,-1.26156,36.83948,Arcade,KE
4c3201106f1fef3b4427ec3d,-1.320045,36.800852,Lake,KE
4c32029a452620a1745b210f,-1.285893,36.822116,Diner,KE
4c320eda213c2d7fc9cb345d,-1.263724,36.802559,Indian Restaurant,KE
4c32d4c416adc928d1bbc29c,-1.294388,36.786861,Bakery,KE
4c335ed866e40f47a9dec78b,-1.284773,36.822801,Bar,KE
4c35afe866e40f47947ecb8b,-1.29811,36.76508,Italian Restaurant,KE
4c35b9d27cc0c9b60258f59a,-1.284692,36.824198,Fast Food Restaurant,KE
4c35df5616adc9282869c79c,-1.292,36.784694,Gas Station / Garage,KE
4c3627283849c9287f8bbbb1,-1.262268,36.80065,Pizza Place,KE
4c36f35152dfef3bc4e9ee70,-1.285398,36.823642,Building,KE
4c36ff6293db0f473aef1e92,-1.306771,36.801617,Miscellaneous Shop,KE
4c3705e2dfb0e21e82f6aba8,-1.307609,36.776564,Home (private),KE
4c3899463849c9287ab7bfb1,-1.286877,36.825893,Movie Theater,KE
4c39a78f1a38ef3b3aef9221,-1.324593,36.708798,Coffee Shop,KE
4c39d14f18e72d7f29bf1af5,-1.254824,36.86039,Pool,KE
4c39de8893db0f47960e2492,-1.327567,36.788812,Fried Chicken Joint,KE
4c39e6fd18e72d7fefe21af5,-1.286417,36.814784,Park,KE
4c3a19f81e06d13acbbc7a3e,-1.324199,36.783757,Mall,KE
4c3a222a3849c928e772c2b1,-1.330765,36.787336,Home (private),KE
4c3b0f9462f1c928c7df8e53,-1.281774,36.816387,Restaurant,KE
4c3b5debdef90f4736d4fd2d,-1.220095,36.905729,Home (private),KE
4c3c2687a9509c743d03395b,-1.299151,36.812181,Restaurant,KE
4c3c53d886ce328f3d89ab2d,-1.259315,36.779812,Gas Station / Garage,KE
4c3c5caea9509c744719395b,-1.312293,36.817454,Other Great Outdoors,KE
4c3c72f53d1b897cb089419c,-1.286676,36.826547,Bakery,KE
4c3d4477b169c9b657e84668,-1.253643,36.86008,University,KE
4c3d520c7ea8952116892247,-1.29417,36.787077,Office,KE
4c3d5600b36ac92826610586,-1.268284,36.807991,Office,KE
4c3dae2b7ea89521f2a72247,-1.285979,36.822996,Coffee Shop,KE
4c3dbc737ea89521f7ad2247,-1.319916,36.836772,Office,KE
4c3ec6dcca012d7f40f52fbe,-1.284981,36.824515,Building,KE
4c3ecf9d0596c92864ca8478,-1.285331,36.82441,African Restaurant,KE
4c3f38bf0edd952190bd2b0f,-1.299101,36.819644,Home (private),KE
4c3f391bbb2d9c7491d37dd6,-1.321681,36.862699,Home (private),KE
4c3f7f0d0edd9521bdd72b0f,-1.290552,36.804951,African Restaurant,KE
4c404630da3dc9289208c7b9,-1.309791,36.812844,University,KE
4c404930af052d7f84817b79,-1.283007,36.821324,Fast Food Restaurant,KE
4c404ff8a5c5ef3bc5eaaf6f,-1.28644,36.818417,African Restaurant,KE
4c40576fe26920a1efb15ce7,-1.299249,36.765519,Pub,KE
4c407676a5c5ef3bf7f9af6f,-1.282664,36.815998,Office,KE
4c40b120d7fad13a426206da,-1.304796,36.772395,Lounge,KE
4c40f1c7af052d7fffa27c79,-1.284398,36.821366,Bar,KE
4c4147b1ce54e21ed3f40a1a,-1.282263,36.81409,Cocktail Bar,KE
4c41a3c27beab71306a29555,-1.284599,36.825272,Boutique,KE
4c41f742e26920a11d495fe7,-1.33023,36.924706,Airport Terminal,KE
4c42f5c17beab713b9f89555,-1.292455,36.843379,Soccer Field,KE
4c4335f5ff711b8da0971405,-1.268475,36.809226,Indian Restaurant,KE
4c43c9fb36d6a5939fb269a8,-1.284427,36.823453,Burger Joint,KE
4c44038ef799e21ee543ada2,-1.271061,36.80116,Bank,KE
4c441eb359d99c74acb2fbad,-1.290792,36.790774,Building,KE
4c442a69fb6eb7135d614e4a,-1.293058,36.785445,Caf,KE
4c44489afb6eb713a36b4e4a,-1.310568,36.742414,Golf Course,KE
4c4449d559d99c74f1bffbad,-1.260494,36.795659,Building,KE
4c44702074ffc928428475cc,-1.32613,36.850369,Gas Station / Garage,KE
4c454f1cf05e95215957e4b3,-1.299193,36.797184,Office,KE
4c456d16f799e21ec327afa2,-1.282911,36.820935,Mall,KE
4c457495f97fbe9a5186bc30,-1.259663,36.776583,Mall,KE
4c45adeff0bdd13aef3fcbcc,-1.263969,36.803111,Gas Station / Garage,KE
4c45b6bbda2176b0023e637a,-1.293307,36.804978,Road,KE
4c46b17389a6c9b668e99788,-1.289701,36.811227,Hotel,KE
4c46b98249fa95211a515762,-1.284507,36.823879,Building,KE
4c46d7531262ef3b9e54c941,-1.259979,36.785402,African Restaurant,KE
4c46e0421262ef3b6a60c941,-1.259979,36.785531,Gas Station / Garage,KE
4c46e55e19fde21e338b0676,-1.324413,36.783536,Video Store,KE
4c46e76176d72d7f6d683b4d,-1.285319,36.819831,Mobile Phone Shop,KE
4c47043b1ddec9282d079c32,-1.250522,36.862019,Building,KE
4c475bea0f5aa5932fa67d76,-1.26426,36.804341,Bar,KE
4c4822313194b713f4829a13,-1.26457,36.80244,Mall,KE
4c482c46972c0f478b052621,-1.293394,36.813706,Office,KE
4c4833bc1ddec92895b29f32,-1.292949,36.812933,Courthouse,KE
4c486ba72c6ab7132e941329,-1.308142,36.82289,Convenience Store,KE
4c486d902c6ab713c8341429,-1.309492,36.82185,BBQ Joint,KE
4c487a62dd91ef3b2becadb7,-1.297198,36.802369,University,KE
4c498971b5eec9b613d2dda4,-1.224396,36.80094,New American Restaurant,KE
4c4991cd82319521b807bbf2,-1.261573,36.801717,Caf,KE
4c49b68ab5eec9b6eadf1ea5,-1.312837,36.816498,Electronics Store,KE
4c49b74a567776b06aebfc87,-1.285765,36.82158,Pub,KE
4c4a14cc959220a1dc38a20d,-1.273278,36.812029,Nightclub,KE
4c4a81e95609c9b623f3c38f,-1.296177,36.809547,Event Space,KE
4c4ab243c668e21e66f5fff8,-1.31587,36.720671,Church,KE
4c4ad09c42b4d13a6105c47d,-1.298675,36.757606,African Restaurant,KE
4c4ae7d29e6dbe9a132d3d0b,-1.222068,36.814016,Diner,KE
4c4b2d72712ac9283c558c6c,-1.285454,36.867462,Resort,KE
4c4b5a069e6dbe9af18cea0b,-1.231539,36.875957,Other Nightlife,KE
4c4ba8796e2095217f9912ec,-1.323306,36.707768,Fast Food Restaurant,KE
4c4bda4a5609c9b6a1cbaf91,-1.319469,36.837099,Gas Station / Garage,KE
4c4be7dc9c8d2d7f6026a76b,-1.320221,36.836205,Church,KE
4c4c3518c8b6b713a99072fb,-1.336563,36.770597,Building,KE
4c4d18312bf7ef3bc4959892,-1.275523,36.794251,Military Base,KE
4c4db590fb742d7f12bc2e2d,-1.286027,36.822875,Wine Bar,KE
4c4dbc6151c2c92822e94b9d,-1.327158,36.787692,Gas Station / Garage,KE
4c4e95e60d90b713cfbcc878,-1.286899,36.818459,General Travel,KE
4c4eb0a951c2c928b161be9e,-1.28347,36.816592,Lounge,KE
4c4edc1d9efabe9a95ccc56a,-1.311459,36.835606,Miscellaneous Shop,KE
4c4f069bfb742d7f6dda442f,-1.281834,36.817612,Bar,KE
4c4f1acbea24c9b62ce4ca16,-1.293553,36.793161,Chinese Restaurant,KE
4c4fbdba2a73c9280f7f58d1,-1.301253,36.807193,Hospital,KE
4c5000312ba0ef3b939046e8,-1.261208,36.802377,Tech Startup,KE
4c50170fda159c744c1efa4a,-1.289153,36.793072,Office,KE
4c5060abd49d76b0dcde1a7b,-1.285271,36.823447,Pub,KE
4c506279f080a5934a0870e2,-1.313526,36.812901,Gas Station / Garage,KE
4c509262bd099521f7bf525e,-1.266243,36.805229,Lounge,KE
4c51301d1c67ef3b40a610b9,-1.283319,36.816452,Bar,KE
4c5167899426c9285265b173,-1.267058,36.813169,Gym / Fitness Center,KE
4c51a340d2a7c9b68b5d8911,-1.263207,36.808101,Steakhouse,KE
4c51fb87bfc6ef3bdd27429c,-1.283339,36.82115,Pub,KE
4c52728cb6dabe9a5e1e5d13,-1.305388,36.754628,Church,KE
4c527582bfc6ef3bcec34a9c,-1.296497,36.886673,Bus Line,KE
4c529560bfc6ef3b73f64c9c,-1.296421,36.816897,Building,KE
4c5299efbfc6ef3bcc3a4d9c,-1.298896,36.813979,Conference Room,KE
4c52b4f0250dd13a44d23b7f,-1.289216,36.824284,Mobile Phone Shop,KE
4c530012989eb713fa1eb726,-1.29544,36.801801,Gas Station / Garage,KE
4c530e9bf5f3d13a7470ddf7,-1.21808,36.898726,Pub,KE
4c533528a724e21eeba362f4,-1.278528,36.883122,Gas Station / Garage,KE
4c5358b206901b8dc9e6ea49,-1.291156,36.805156,Church,KE
4c5401885b839521186cbc31,-1.2857,36.828189,Dance Studio,KE
4c547295b3b09c74a1cf30b4,-1.236467,36.818662,Conference Room,KE
4c55ba5006901b8d95e9f94d,-1.261242,36.822885,College Classroom,KE
4c56a08812f0d13a0a3305ad,-1.293442,36.807165,Office,KE
4c56c445d12a20a12d1b65bd,-1.284778,36.8239,Building,KE
4c56d8886418a59312f07d0e,-1.27227,36.827601,Flea Market,KE
4c56f392b7a31b8d6d174fda,-1.305729,36.82708,Gas Station / Garage,KE
4c57ba4e2308be9aa5e4596c,-1.314834,36.808877,Home (private),KE
4c57f913b136952175a9735a,-1.284458,36.830571,Bakery,KE
4c5805017329c9283b109080,-1.261198,36.800702,Electronics Store,KE
4c583b5c744a0f476fb8cacb,-1.257187,36.803011,BBQ Joint,KE
4c58465e6418a593aa3c810e,-1.261202,36.800408,Tech Startup,KE
4c584a60b13695216ecf735a,-1.22804,36.805298,Miscellaneous Shop,KE
4c585ecd7329c92822fe9080,-1.258481,36.804436,Mall,KE
4c58e4b4aeb7b713f51b73cd,-1.27388,36.783289,High School,KE
4c5977d104f9be9aeb4eef60,-1.28544,36.822491,Movie Theater,KE
4c5999f8b05c1b8dd823d6b1,-1.26466,36.802543,Tapas Restaurant,KE
4c5a5a51ec2520a1a3705112,-1.29015,36.828047,Bus Station,KE
4c5a765367ac0f4792cb064c,-1.285507,36.824447,Arts & Crafts Store,KE
4c5a7b855c57c9b689621d4a,-1.281222,36.822591,Bus Station,KE
4c5a8b33aeb7b71301cf73cd,-1.286859,36.828715,Bus Station,KE
4c5aad54aeb7b713e0db73cd,-1.298493,36.80278,Road,KE
4c5b85be857ca59387dcc7cb,-1.284901,36.825753,Library,KE
4c5b8b3a7735c9b673208a72,-1.285551,36.819337,Bakery,KE
4c5bb3fa9b28d13a54f15470,-1.281174,36.818348,Dessert Shop,KE
4c5bcacf94fd0f4735eac645,-1.335962,36.780381,Office,KE
4c5bd5a7bfa59521a0a969ff,-1.201532,36.89088,Other Great Outdoors,KE
4c5be8167f661b8da706471c,-1.285021,36.823222,Bank,KE
4c5bf37a99ff76b0b1a2a89e,-1.289679,36.824094,Capitol Building,KE
4c5c068699ff76b013c0a99e,-1.285364,36.819852,Clothing Store,KE
4c5c0aed7735c9b635198b72,-1.261192,36.801996,Fast Food Restaurant,KE
4c5c15cafff99c74ba6530d3,-1.295398,36.820475,Building,KE
4c5d3f0afff99c748bf53fd3,-1.257145,36.803242,Coffee Shop,KE
4c5d56db17f3b7137cb510e6,-1.285573,36.824515,Bus Line,KE
4c5e62d2fff99c74f4214ed3,-1.321847,36.801968,Bar,KE
4c5e77e9857ca593b4d9cfcb,-1.311601,36.836988,Gas Station / Garage,KE
4c5e7b036147be9a810e9509,-1.249969,36.820378,Mall,KE
4c5e85646147be9a2e1f9509,-1.319358,36.836983,Pizza Place,KE
4c5ed85094fd0f473b2fcf45,-1.218661,36.899818,Nightclub,KE
4c5f103147429c747d87107a,-1.286177,36.825929,Fast Food Restaurant,KE
4c5fb94347429c7414f81a7a,-1.264827,36.804178,Building,KE
4c5fc82d3986e21eb1db924f,-1.261208,36.802138,Food Court,KE
4c616fbade6920a159479864,-1.32878,36.78159,BBQ Joint,KE
4c62e7b486b6be9ab9378d34,-1.300878,36.887917,Gas Station / Garage,KE
4c6314e3e1621b8d5b102553,-1.300077,36.788368,Fried Chicken Joint,KE
4c637125ec94a5937bff2bca,-1.284021,36.822906,Hotel,KE
4c63881786b6be9a50f38e34,-1.258203,36.85275,College Academic Building,KE
4c653362508f76b00e5cb5a6,-1.304385,36.802611,Mosque,KE
4c655d9ccdb6e21e8ade343e,-1.26295,36.808401,Hotel,KE
4c657ddeb80abe9aa756cae5,-1.288875,36.825764,Seafood Restaurant,KE
4c65a3b0e1da1b8d82ca98c3,-1.263378,36.801915,Cocktail Bar,KE
4c65d81c7abde21eadfb6168,-1.264184,36.805672,Nightclub,KE
4c664b71c2ead13a667bb380,-1.303822,36.829146,Office,KE
4c667f41d6f676b02755d56c,-1.330297,36.804294,Athletic & Sport,KE
4c669b928e9120a14049d864,-1.263587,36.797074,Coworking Space,KE
4c66a320d6f676b0d621d66c,-1.255002,36.754181,Furniture / Home Store,KE
4c66babac2ead13a0175b480,-1.282146,36.816571,Cosmetics Shop,KE
4c66dbf7d6f676b05043d86c,-1.283332,36.816666,Bus Line,KE
4c66de3cf7a80f4773479f7a,-1.230089,36.76579,Home (private),KE
4c676983e1da1b8d30349ec3,-1.2225,36.755015,Home (private),KE
4c6814309cb82d7f2ec594d2,-1.259507,36.826612,Gas Station / Garage,KE
4c6848ded9c7c9b6fd0dc41a,-1.269453,36.733459,Home (private),KE
4c693f9daa4376b07122891a,-1.228572,36.804929,Ice Cream Shop,KE
4c6a964e2c29d13ab6190e41,-1.296203,36.779665,Ethiopian Restaurant,KE
4c6a96f6cff295213531275e,-1.282,36.762831,Food Court,KE
4c6ac3d48e7c0f47b402e30f,-1.263855,36.824263,Gas Station / Garage,KE
4c6ac7518d22c928d8aaba45,-1.286051,36.826176,Bus Station,KE
4c6bc57e599fbe9ab652933f,-1.262286,36.80249,Hotel,KE
4c6c2745e13db60cc244d5b1,-1.301854,36.888013,Burger Joint,KE
4c6cf3f86af58cfa4a238817,-1.27748,36.815588,Office,KE
4c6d0b3a99b9236a7811e4c9,-1.2702,36.807181,Burger Joint,KE
4c6d23dd7bfe199c5712dace,-1.276905,36.801571,Park,KE
4c6d76d7a437224b9e212db1,-1.311758,36.92257,Police Station,KE
4c6d7fcbf338236a25ce071b,-1.322245,36.801355,Nightclub,KE
4c6e0b5df323bfb7c1752199,-1.294764,36.805369,Office,KE
4c6e8c4d4d24b60c92ead8d8,-1.284753,36.820388,Building,KE
4c6ebcbe9b7cef3b9c57f62a,-1.259104,36.779892,Fast Food Restaurant,KE
4c6ec50ff338236acb720b1b,-1.285762,36.823463,Restaurant,KE
4c6ec9e04d24b60c17bed9d8,-1.285191,36.826565,Bus Station,KE
4c6fa6c2fa49a1cd289ca3e3,-1.28624,36.742798,Bus Station,KE
4c6fd1802930bfb7f06af680,-1.264169,36.803963,Hotel Bar,KE
4c7033b2df6b8cfa068eb74d,-1.267641,36.805582,Nightclub,KE
4c7038acf23c76b0e926e885,-1.295212,36.802548,Mall,KE
4c70f21b932aef3bb8352677,-1.196719,36.923137,Parking,KE
4c70f6029a669c74b0eae0bd,-1.313137,36.851578,Road,KE
4c713c883bbbbfb7b9f21460,-1.308464,36.909885,Lounge,KE
4c725d3ff3279c7471c4ab2d,-1.295593,36.80178,Fried Chicken Joint,KE
4c738e740e23b1f7adad20dc,-1.286181,36.813369,Office,KE
4c73a75b4bc4236ac258ce7a,-1.268206,36.808877,Home (private),KE
4c74061aff1fb60c4f56f2a7,-1.264452,36.802461,Fast Food Restaurant,KE
4c7516d3c11e199c7ef84648,-1.280306,36.77048,Grocery Store,KE
4c769c7dc11e199c367f5248,-1.319895,36.836922,Fast Food Restaurant,KE
4c76d3c3941876b02ec8daf8,-1.264135,36.80573,Nightclub,KE
4c772221941876b0c132ddf8,-1.284327,36.818853,Automotive Shop,KE
4c7779645cd6b1f7e5313f94,-1.286122,36.823017,Restaurant,KE
4c77c2b3a5676dcbcf8f1921,-1.292316,36.892319,Housing Development,KE
4c77d711947ca1cdd1904837,-1.191085,36.931426,Department Store,KE
4c77db29a690236ac2909eb5,-1.276129,36.792412,Hotel,KE
4c77ff83df08a1cd62e2d55d,-1.290664,36.90298,Bar,KE
4c79108adf08a1cdaf49d95d,-1.192263,36.894231,Farm,KE
4c7b72b62d3ba143dd0894d0,-1.294627,36.806292,Bank,KE
4c7b8d1f2dc195212899b477,-1.282096,36.819359,Office,KE
4c7b8f204dc1ef3bd3e43a9e,-1.284274,36.825758,Arcade,KE
4c7b9c2581bca093338c0315,-1.335719,36.779602,Other Great Outdoors,KE
4c7bcf57dbaa76b0e74a2b4b,-1.316656,36.834412,Mall,KE
4c7be199bd346dcb5f7bfcef,-1.314094,36.851938,Home (private),KE
4c7cc76d83a7bfb770fc96f8,-1.279088,36.817381,College Engineering Building,KE
4c7cd4fd20bb199c4a992729,-1.283804,36.821108,Mosque,KE
4c7cdff47a856dcbc641e3a7,-1.284026,36.817507,Office,KE
4c7ce04809b29c74463ae53c,-1.261215,36.802122,Clothing Store,KE
4c7ceaa372ccef3ba27a6932,-1.310477,36.818039,Church,KE
4c7ced1f72ccef3b5b876932,-1.322147,36.802225,Bar,KE
4c7cedb772ccef3bf68b6932,-1.322147,36.802225,Pub,KE
4c7cf5d072ccef3bedce6932,-1.323392,36.831665,General Entertainment,KE
4c7cf68172ccef3bb9d56932,-1.337636,36.780639,Scenic Lookout,KE
4c7cfaa172ccef3b0fe36932,-1.337271,36.773622,General College & University,KE
4c7d3ea7015895210d87ff62,-1.291379,36.821461,Performing Arts Venue,KE
4c7e09d1f0b09c74bfe63e7c,-1.32347,36.833377,Hotel Bar,KE
4c7e1b5db53db1f7a8fe9e11,-1.300025,36.78705,Bank,KE
4c7e52fad461a14304a67ff5,-1.312108,36.829476,Burger Joint,KE
4c7e5fc1b33a224b16aeda81,-1.315906,36.834628,Coffee Shop,KE
4c7e7a91f4cf9c74de369ca0,-1.284261,36.825798,Department Store,KE
4c7f44dd1415b713e65aff5c,-1.300309,36.785102,Office,KE
4c80d66e6cc2b713c582149b,-1.260236,36.806259,Spiritual Center,KE
4c80dea4d34ca143eb9b1c80,-1.285162,36.824452,Fast Food Restaurant,KE
4c8105d56cc2b713fbc8159b,-1.282217,36.827721,Bus Line,KE
4c81112d6cc2b713183a169b,-1.304138,36.824681,Soccer Stadium,KE
4c8258ff47cc224bad91849f,-1.264275,36.80561,Food Truck,KE
4c8285612f1c236a77333a43,-1.301935,36.826444,Bar,KE
4c836f9874d7b60caac289d8,-1.261203,36.802101,Grocery Store,KE
4c8370c8dc018cfa07a6d86c,-1.323048,36.703349,Mediterranean Restaurant,KE
4c83c9d92f1c236a52c44543,-1.268384,36.798107,Home (private),KE
4c83d8b088e6199cb4aac0d4,-1.282383,36.821471,Fast Food Restaurant,KE
4c83fc3288e6199ce391c1d4,-1.263769,36.756908,Library,KE
4c848c0a6e8c9521d8be6d64,-1.295878,36.886767,Mall,KE
4c84de19d92ea093ce816072,-1.298909,36.763015,Food Court,KE
4c85069b47cc224bf3f99c9f,-1.285013,36.820251,Cosmetics Shop,KE
4c86483ed34ca1431b3f4e80,-1.285801,36.822801,Coffee Shop,KE
4c867b7447cc224bf1f2a99f,-1.294695,36.798813,Bar,KE
4c867c34c5a99521282b9d05,-1.29673,36.876461,Convenience Store,KE
4c8761239062ef3b49683fc6,-1.289163,36.793314,Office,KE
4c876fdce602b1f7418dc77a,-1.288112,36.826349,Electronics Store,KE
4c878a49d92ea0933ebc7672,-1.284701,36.820399,Electronics Store,KE
4c8829054f239521a7ef41ee,-1.327424,36.717339,Salon / Barbershop,KE
4c8832bd4f239521573f42ee,-1.323504,36.701138,Italian Restaurant,KE
4c88838d0074199cf2201e70,-1.292844,36.787728,Grocery Store,KE
4c88cb737223b1f7091e2ea8,-1.265119,36.803174,Office,KE
4c892715da5da1cdf7183ae9,-1.281225,36.818127,Fast Food Restaurant,KE
4c8a3622159cbfb70bc56f35,-1.299949,36.78381,Arcade,KE
4c8a642452a98cfa80212ce9,-1.286225,36.82248,Department Store,KE
4c8b7ba9a92fa093d0df9abf,-1.258802,36.781091,Pub,KE
4c8b94f8012b95217980b52c,-1.285979,36.840634,Flea Market,KE
4c8bb37675ba9c746d8a5a5c,-1.300592,36.787534,Cupcake Shop,KE
4c8ccc415e048cfa96d4cfcd,-1.285687,36.881824,Automotive Shop,KE
4c8ce3fa0bcbbfb78ac7e3fe,-1.331704,36.781375,Pizza Place,KE
4c8ce66dd5049c748b734b6a,-1.299434,36.801949,Building,KE
4c8e01cad68c6dcb8231f8a1,-1.285877,36.826034,Fast Food Restaurant,KE
4c8e0387a8de224b35762301,-1.3237,36.835002,Office,KE
4c8e6b1a0ff176b0e59f0797,-1.329999,36.924189,Restaurant,KE
4c8f0db2c8659521dcd60529,-1.323434,36.707125,Post Office,KE
4c8f0e43c8659521a8d90529,-1.336778,36.726136,Medical Center,KE
4c8f1038c865952197e40529,-1.323863,36.707726,Mall,KE
4c8f13684e95236ac04c81ca,-1.257838,36.80197,Bank,KE
4c8f48cdd2aea093ce02d569,-1.298056,36.884829,Gym,KE
4c8f4a7af9c1199c53d3be49,-1.283587,36.82276,Electronics Store,KE
4c8f4c3df9c1199cabd6be49,-1.288795,36.827095,Department Store,KE
4c8f6cc1ef86ef3b1084f4ab,-1.292715,36.791089,Office,KE
4c8f813dc865952175660829,-1.221649,36.822633,Housing Development,KE
4c8fc0373208952137809a8c,-1.233406,36.757475,Other Great Outdoors,KE
4c9057fd3b3e9c7469d430cb,-1.292369,36.805924,Office,KE
4c9073678914b713b6d41837,-1.298572,36.768987,College Library,KE
4c91dbe751d9b1f774f48346,-1.289044,36.820367,Government Building,KE
4c92269c3d4e199c64e82f53,-1.28317,36.822018,African Restaurant,KE
4c92366d238c6dcb8071c655,-1.257085,36.803074,Miscellaneous Shop,KE
4c9312d152929c745db730a0,-1.2919,36.812954,Bus Station,KE
4c935b8f6cfea093a748b98b,-1.283759,36.824199,Cosmetics Shop,KE
4c9364262bf7b60c2d916a0a,-1.285125,36.82473,Dessert Shop,KE
4c9392adbc279c7418d25553,-1.295223,36.796858,Bar,KE
4c93eaf7f7cfa1cd6ce0ae15,-1.301639,36.8257,Bar,KE
4c94878494a0236a52688d12,-1.27312,36.814468,General Entertainment,KE
4c94b4ee38dd8cfae63acb62,-1.288566,36.802369,General Entertainment,KE
4c94c6a558d4b60c75812b29,-1.301077,36.771464,Field,KE
4c94c70272dd224b67e59c91,-1.26714,36.81732,Gas Station / Garage,KE
4c94eee7f7cfa1cd5669b815,-1.260938,36.775283,French Restaurant,KE
4c959bd10341370464c07def,-1.253574,36.860894,College Library,KE
4c95c8a901dd76b01df5be48,-1.229344,36.892262,Field,KE
4c95ecbbefecb71366d0e79d,-1.287524,36.827846,Building,KE
4c95ee5befecb71379d5e79d,-1.283062,36.822106,Conference Room,KE
4c96221e82b56dcbf5a8deaa,-1.3232,36.708251,Bar,KE
4c97319d7605199c9b2dc7a3,-1.300352,36.787248,Mall,KE
4c9739a4bc279c74df166d53,-1.284778,36.822696,Caf,KE
4c976a127605199c9db4c8a3,-1.323372,36.708083,Miscellaneous Shop,KE
4c988d1507916dcb20c3ec1b,-1.263851,36.805283,Burger Joint,KE
4c99ddb0a004a1cd4af7426e,-1.284611,36.823574,Electronics Store,KE
4c99e15c9c663704676f53fd,-1.283981,36.822845,Electronics Store,KE
4c99ed02b8e9224bb505493d,-1.257127,36.803179,Mobile Phone Shop,KE
4c99f0e79c6637045dfc53fd,-1.261218,36.802227,Candy Store,KE
4c9b266d78fc236a735a3b97,-1.298126,36.892707,Housing Development,KE
4c9b8011775abfb7550b5367,-1.265818,36.759074,General College & University,KE
4c9c481a9170bfb71f67de9b,-1.286451,36.827223,Arcade,KE
4c9f52ca2fb1a143df8df240,-1.264629,36.817911,Hospital,KE
4c9f837c7c096dcbc11cdfd1,-1.300142,36.786808,Fried Chicken Joint,KE
4ca47065554b236a92e62e48,-1.324425,36.784699,Fast Food Restaurant,KE
4ca5744e14c337044b8ab63b,-1.284614,36.820798,Building,KE
4ca5934c97c8a1cdc53168a5,-1.328697,36.891794,Gas Station / Garage,KE
4ca5dbd014c3370413a3b93b,-1.285647,36.81982,African Restaurant,KE
4ca71f9fb0b8236a30cda5e6,-1.285506,36.819794,Electronics Store,KE
4ca7b039d971b1f706f30ce1,-1.301185,36.825293,Nightclub,KE
4caafa78d971b1f7daa926e1,-1.271722,36.820041,Office,KE
4cac19692f08236a802e8961,-1.28974,36.809466,Doctor's Office,KE
4cacb5aa76d3a0932733346b,-1.302798,36.779931,Flea Market,KE
4cae07d02303a143f88aebf0,-1.300315,36.815404,Diner,KE
4caea4941463a14378848ea9,-1.282306,36.850653,Monument / Landmark,KE
4caef00e75ebb60c4cf8b7ad,-1.291043,36.814521,Government Building,KE
4caffff4db32f04dd562bc4d,-1.303312,36.83351,Automotive Shop,KE
4cb06c7fdb32f04d3263bf4d,-1.278282,36.812875,Field,KE
4cb2dea739458cfa1b1716a0,-1.283617,36.821319,African Restaurant,KE
4cb447e7c5e6a1cdd8b5f1f6,-1.309276,36.83557,Building,KE
4cb48dc53f0676b0b906ff0c,-1.316701,36.834208,Food Court,KE
4cb4a983a5c0ef3b06a5647e,-1.250926,36.732059,University,KE
4cb57bfc3ac93704187ccc0a,-1.210155,36.851478,Golf Course,KE
4cb5901758b6ef3bfa89270c,-1.290699,36.820693,Government Building,KE
4cb6807c55af224b5ea59a7e,-1.248276,36.797037,Gas Station / Garage,KE
4cb69f1964998cfa58f416a2,-1.284255,36.816834,Hotel,KE
4cb70736304576b0f241b0c2,-1.268431,36.818469,University,KE
4cb715ef9c7ba35df96b9606,-1.329886,36.925399,Bar,KE
4cb7bb424352a1cdaf8e80f5,-1.311734,36.907106,Other Great Outdoors,KE
4cb82b37558576b098da470e,-1.274908,36.79486,Miscellaneous Shop,KE
4cb86ba7352ebfb7f90b8cf2,-1.317128,36.836771,Chinese Restaurant,KE
4cb86f5cbac937040abedc7c,-1.261155,36.802203,Multiplex,KE
4cb87bb4352ebfb74c1b8cf2,-1.317128,36.836772,Cocktail Bar,KE
4cb8bedbf50e224b2e2de9fb,-1.313169,36.905729,Home (private),KE
4cb93dbb4c60a093b4cb3eca,-1.261706,36.802101,Bank,KE
4cb97be6352ebfb731c28cf2,-1.313354,36.894974,Home (private),KE
4cb9c84b3481199c84d56a3f,-1.235909,36.876898,Event Space,KE
4cbad661352ebfb7acac8df2,-1.290462,36.77028,Mall,KE
4cbb5556bac937046272f17c,-1.251567,36.799688,Residential Building (Apartment / Condo),KE
4cbc4eb9adcd5481fa902da2,-1.296594,36.758211,Pub,KE
4cbc6d87bac937042319f87c,-1.29972,36.787354,Bus Station,KE
4cbc78163481199c9ec16c3f,-1.282573,36.822097,Bar,KE
4cbdca97adcd5481acc535a2,-1.259701,36.776414,Seafood Restaurant,KE
4cbea0849ca85481f0c5b116,-1.322742,36.786871,Gym,KE
4cbf0270acd48cfad4c6403f,-1.307863,36.83272,Hospital,KE
4cc1d5fe9eeab7137c8fde40,-1.284422,36.82114,Bank,KE
4cc29a2138aaa09310640762,-1.257512,36.803085,Electronics Store,KE
4cc2a4293d7fa1cd523ca05f,-1.257515,36.803242,Clothing Store,KE
4cc2a6d9d43ba143e6305af8,-1.257117,36.802832,Department Store,KE
4cc2d7b1be40a35dcfee734c,-1.301309,36.779697,Convenience Store,KE
4cc3110bdba3ef3bb2a30605,-1.26297,36.803815,Other Great Outdoors,KE
4cc313bcdba3ef3b9da50605,-1.267932,36.822386,Road,KE
4cc52d131e596dcb005cd667,-1.287907,36.788212,Medical Center,KE
4cc592e1f49676b00f5873d5,-1.301167,36.812096,Office,KE
4cc66e1fd43ba1439cfa73f8,-1.283561,36.819644,Home (private),KE
4cc6b3593d7fa1cdc1b0b85f,-1.268027,36.819644,Home (private),KE
4cc6b8fd80624688b257432f,-1.298347,36.762378,Bank,KE
4cc71f1682388cfabd4a8035,-1.264495,36.804289,Lounge,KE
4cc7358a306e224b2c17ad6c,-1.220782,36.862699,Home (private),KE
4cc7c0233c40a35d4ade702e,-1.23348,36.930318,Bus Station,KE
4cc7e01bee718cfacd74b43d,-1.305598,36.825656,Bus Station,KE
4cc7e2b05b7aa143c6d8317d,-1.33317,36.780501,Cemetery,KE
4cc7fdb012bd9521c63cbfab,-1.279887,36.818164,Police Station,KE
4cc81fc1fa03224b075f42ef,-1.285271,36.818919,African Restaurant,KE
4cc8341ca32bb1f717c7aca8,-1.287391,36.824746,Department Store,KE
4cc8458b94e1a0936b6e968b,-1.284967,36.823574,Salon / Barbershop,KE
4cc86ee23d99b713a2873553,-1.28821,36.827502,Department Store,KE
4cc926972a759c7430817275,-1.2582,36.853984,Conference Room,KE
4cc95dc2d54fa1cd30d63629,-1.283326,36.824791,Gift Shop,KE
4cc9699ed338236aa846a27c,-1.228889,36.805044,Thai Restaurant,KE
4cca5539e47f54818558c7f7,-1.285063,36.825703,Bakery,KE
4ccab127177c3704f1c01734,-1.294816,36.80554,African Restaurant,KE
4ccab58a1ce5236afdaec065,-1.292594,36.786129,Bar,KE
4ccab5f2c4d06dcb636d6403,-1.292869,36.787644,Bar,KE
4ccaef6a72106dcb9c709099,-1.296598,36.801702,College Arts Building,KE
4ccb0397566aa093971218fd,-1.264043,36.800763,Argentinian Restaurant,KE
4ccb6e56ee23a143b07617a8,-1.299832,36.776564,Home (private),KE
4cccfcff09b1b71341cfdba6,-1.289958,36.818422,Park,KE
4ccd032b09b1b71317d4dba6,-1.280698,36.814999,Other Great Outdoors,KE
4ccd574ac566199cdbc8c88c,-1.261531,36.787676,Hotel,KE
4cce3db7c0378cfa12b79248,-1.295711,36.806997,Coffee Shop,KE
4cced5172dc437049001d708,-1.309818,36.920602,Department Store,KE
4ccf201f48b837049709eade,-1.292056,36.776564,Home (private),KE
4cd02dbef6378cfa9869b3d6,-1.275382,36.789222,Video Store,KE
4cd073161ac7a1cd28971992,-1.290942,36.8187,Beer Garden,KE
4cd125be7561236a331f30f3,-1.286618,36.825792,Nightclub,KE
4cd14a7e7b685481bd12c6f8,-1.286392,36.821508,City Hall,KE
4cd2bf9e773ba143c8d3bce3,-1.273236,36.805766,University,KE
4cd2c401fa66236ae9f0ec2e,-1.295586,36.804578,Funeral Home,KE
4cd2d0dadf88a35dcf0c6ba0,-1.309971,36.813853,College Auditorium,KE
4cd3b6185366548185a528ed,-1.254833,36.792656,Department Store,KE
4cd422ee607a6dcb94a91354,-1.285575,36.760568,Beer Garden,KE
4cd53cf3ab19a0936fe83deb,-1.251578,36.799703,Boutique,KE
4cd64e9aa5b34688ff5e9350,-1.30024,36.789327,Church,KE
4cd66b9adfb4a1cd24205f5c,-1.281295,36.818811,Fast Food Restaurant,KE
4cd6e6bb2944b1f71c6565ec,-1.25984,36.81828,Department Store,KE
4cd7814d122ba143383e39a1,-1.29403,36.805072,College Cafeteria,KE
4cd7d8b451fc8cfaaf0de65d,-1.300766,36.794818,Office,KE
4cd81486da85224b6caa4aca,-1.236553,36.79317,Mall,KE
4cd82be32a87a143c36eab09,-1.275508,36.822948,Pub,KE
4cd916a57bb06dcb5605a6b2,-1.260527,36.796396,Church,KE
4cd942db1647a0939cd7e54c,-1.28974,36.883573,African Restaurant,KE
4cda3862c409b60cebadcd1a,-1.292179,36.806168,Office,KE
4cda9cfcd5495481531637b2,-1.267353,36.817358,Bakery,KE
4cdcdc7e5aeda1cdd05fc511,-1.316606,36.813475,Bus Line,KE
4cdcf048d4ecb1f78b7b8248,-1.25063,36.799672,Miscellaneous Shop,KE
4cdd56c06ad1a09373c7f656,-1.309723,36.8141,College Library,KE
4cde4a5b7e2e236a3c7b7e1b,-1.229935,36.804541,Bowling Alley,KE
4cde52f294c3b60ce7bb64ea,-1.283678,36.82237,Bank,KE
4ce0e3c3c4f6a35d4f6ad86c,-1.266669,36.80572,Hotel,KE
4ce10575ffcf370497312382,-1.292182,36.80594,Chinese Restaurant,KE
4ce14019ac908eec05325a06,-1.265299,36.910286,Housing Development,KE
4ce275e478ddf04d48c3b098,-1.264066,36.803931,African Restaurant,KE
4ce2ce03ac908eecccdd5b06,-1.281517,36.818533,Pizza Place,KE
4ce53277578e5941f436e8c9,-1.281596,36.818574,Lounge,KE
4ce688c88ef78cfa75058d9b,-1.289093,36.827243,Park,KE
4ce68999678aa093cccddcea,-1.29489,36.799945,BBQ Joint,KE
4ce7a953e888f04d15823d6b,-1.248906,36.862365,Pub,KE
4ce7c6ae948f224b1221ec5d,-1.298793,36.887266,BBQ Joint,KE
4ce7fa79fe90a35da4b33f0e,-1.286446,36.76665,Middle School,KE
4ce801cb9f776ea8e4645b22,-1.266512,36.791531,Residential Building (Apartment / Condo),KE
4cea1983f8653704b3fbbac4,-1.289874,36.799845,Government Building,KE
4cea274c8ef78cfa6d22a59b,-1.265244,36.812086,Police Station,KE
4cea81c0678aa093b8cdf3ea,-1.281079,36.812481,College Engineering Building,KE
4ceb73ef948f224b3cec005e,-1.282938,36.823837,Convenience Store,KE
4cebba62678aa093ff17faea,-1.263459,36.837782,Gas Station / Garage,KE
4cec128f0f196dcbb88b5bae,-1.299887,36.789911,Pizza Place,KE
4cee3b0328abb60c4ba6bc09,-1.291453,36.770728,Italian Restaurant,KE
4cee94d37b943704663e2e53,-1.266712,36.799398,Indian Restaurant,KE
4cee9635f368b1f7ad7a81f7,-1.324062,36.782989,Bar,KE
4cef5859b3662c0fa7c37530,-1.26487,36.725922,Student Center,KE
4cef85d3d7268cfac59ccf4e,-1.2839,36.822449,Bank,KE
4cf2347b8333224b95110f8e,-1.300694,36.787908,Bakery,KE
4cf3c7e6a41a60fceff52dc0,-1.331715,36.781926,Police Station,KE
4cf4d407cc61a35dd05a279e,-1.329322,36.870535,Car Dealership,KE
4cf51fdf99c6236a41644967,-1.262894,36.803668,Thai Restaurant,KE
4cf5e10c64e3721efa491ec8,-1.270351,36.798759,Building,KE
4cf633e7e308236a23b4e4ac,-1.325193,36.84866,Office,KE
4cf6544e66585481fdafc898,-1.262106,36.807912,Playground,KE
4cf6644c81cd6dcb432c7b0d,-1.281776,36.815772,General College & University,KE
4cf7424ec28df04dfea7cf15,-1.289671,36.81195,Office,KE
4cf787d555e137044e33d3b6,-1.289959,36.821807,Building,KE
4cf7b72e81cd6dcbce31830d,-1.285739,36.819216,Pub,KE
4cf7c09564e3721e9c4e28c8,-1.285413,36.757664,High School,KE
4cf8e2754464b60c04c262f8,-1.263052,36.801823,Electronics Store,KE
4cf8e4a0ee0ea1432b033f97,-1.303257,36.829472,Automotive Shop,KE
4cf8fe287b44224b3f2cd205,-1.207031,36.785956,Beer Garden,KE
4cfa2178d7206ea88a153769,-1.291003,36.79293,BBQ Joint,KE
4cfa4a16dccef04d6d50b49c,-1.286716,36.823695,Flea Market,KE
4cfb7ade0df3236afe14faa9,-1.3288,36.719033,Miscellaneous Shop,KE
4cfc63cf084f5481d31d8609,-1.299081,36.810998,African Restaurant,KE
4cfca4c592386a31bbd191c9,-1.289593,36.819268,Road,KE
4cfca70892386a3122d491c9,-1.222866,36.917968,Residential Building (Apartment / Condo),KE
4cfcc5852d80a143bae952d8,-1.325418,36.790558,African Restaurant,KE
4cfd0c6e7945224b7d6d8ee7,-1.329285,36.855729,Coffee Shop,KE
4cfe17b5feec6dcb78c75536,-1.261313,36.798673,Electronics Store,KE
4cff9bf7c00a5941a45b9087,-1.330765,36.787336,Home (private),KE
4cffa5a0f160548173189aea,-1.326719,36.871024,Bank,KE
4cffc5d92685a35de737c590,-1.281814,36.817796,Bar,KE
4d00b4f72685a35d1f17ca90,-1.292257,36.811534,Office,KE
4d00c4cdffcea143d12c2f91,-1.280863,36.823179,Nightclub,KE
4d00d80d1fcef04daeb4ccb9,-1.299284,36.808877,Home (private),KE
4d00fcdaf7b38cfa0783d2c3,-1.284656,36.821629,Coffee Shop,KE
4d00fd6b6edfa093d60d0f15,-1.314279,36.841175,Home (private),KE
4d02283518ff8cfaa2fec257,-1.280824,36.821161,General College & University,KE
4d024936e5f16ea8511caa28,-1.219783,36.713842,Cheese Shop,KE
4d0391dd347da1cdd035268f,-1.289209,36.82698,History Museum,KE
4d04f22b9d33a1434e0dbe78,-1.293395,36.795191,Mosque,KE
4d05b7cbe350b60c8bf88942,-1.221616,36.822207,Road,KE
4d05f2b29d33a1430c82c378,-1.29103,36.776672,Pool,KE
4d0750dd7d9ba35dfb787423,-1.285067,36.822079,Fast Food Restaurant,KE
4d07701e1446a0903c76dacf,-1.263218,36.764685,Office,KE
4d0b13edd8d78cfa82d31abe,-1.294805,36.806902,Office,KE
4d0b82f3f2c1236a90f80157,-1.330598,36.92625,Airport Terminal,KE
4d0b98af6aa05481e8d7eaaa,-1.290302,36.770885,Gas Station / Garage,KE
4d0c7d33801054810ced1896,-1.28316,36.822896,Thai Restaurant,KE
4d0caf6095c1a1cdb88dfdfe,-1.324696,36.879734,Building,KE
4d0dd015257d6dcb5cba9e67,-1.292045,36.761589,Caf,KE
4d0f6417d7d6a09053aa67f7,-1.283852,36.819904,Convenience Store,KE
4d0f68a872ed8eec72098140,-1.282139,36.827846,Bus Line,KE
4d10475359606dcb5e56743e,-1.300861,36.815378,Coworking Space,KE
4d10a1a5b765224b0fcfeb32,-1.282659,36.831464,Bus Station,KE
4d11cbb8e212a1cdfcfc486f,-1.316162,36.834392,Coffee Shop,KE
4d122a6d1f95236a4e013c06,-1.317275,36.917955,Miscellaneous Shop,KE
4d1243059844b60c0f3cbad4,-1.284664,36.819132,Pub,KE
4d12f1660ad2f04de324b054,-1.208228,36.832936,Mall,KE
4d1348fd37f1236a9915801b,-1.293941,36.821518,Car Dealership,KE
4d1370ea2e583704f226ecd1,-1.2164,36.888563,Building,KE
4d1464c6e190721e64070721,-1.303589,36.813806,Coworking Space,KE
4d14a3b06c8b5481da60d8cc,-1.228398,36.805417,Playground,KE
4d14d018816af04db0ec3ec2,-1.266973,36.802995,Church,KE
4d152cc5bb64224b88c1b265,-1.314565,36.81226,Housing Development,KE
4d16ecf3816af04d61f74bc2,-1.224968,36.885438,Church,KE
4d19ce2c1356a093298fec82,-1.285493,36.821786,Bank,KE
4d19d4c7e190721e8a1b2c21,-1.315983,36.835196,Food Court,KE
4d1a2055401db60ce87effa4,-1.217752,36.89965,Bank,KE
4d1b27c9eab1224b0cc2cfe2,-1.287052,36.818275,Office,KE
4d1b444c9aa5548189b0cce0,-1.320425,36.826618,Market,KE
4d1b570e70d76ea836674d73,-1.284107,36.819557,Office,KE
4d1c8e512dd93704bd704cb5,-1.306317,36.819868,Gas Station / Garage,KE
4d1cabed763fb1f764b78c66,-1.229001,36.80492,Mall,KE
4d1f0a93e56f6ea898826a1d,-1.218717,36.894078,Police Station,KE
4d204c375c4ca1cd882ea03d,-1.299867,36.791762,Hotel,KE
4d20c0a42eb1f04d0398f2c1,-1.283512,36.887277,Men's Store,KE
4d21d29316cfb60cf1776461,-1.272388,36.807365,Road,KE
4d21d6736e8c37041c3406a0,-1.283416,36.817728,Building,KE
4d21f40df7a9a143f1de3a9f,-1.284481,36.819936,African Restaurant,KE
4d2350aa756e8cfa19db8654,-1.284495,36.82349,Building,KE
4d24267ef39ca143f42573b8,-1.30113,36.780575,Mall,KE
4d2426fcc5f2a1cd5a0c51cf,-1.300876,36.780707,Caf,KE
4d243bac14f2b1f711876cbe,-1.312871,36.830213,Indian Restaurant,KE
4d243c56f39ca143a2be73b8,-1.285432,36.825114,Bank,KE
4d243ecbdcf4224b0f15a276,-1.288591,36.825399,Bank,KE
4d2447e5cc84721eca3267f6,-1.281979,36.779744,Church,KE
4d24f635b9796dcb011ca439,-1.264262,36.804341,Nightclub,KE
4d26a56477a2a1cd07a951b7,-1.269151,36.797368,Building,KE
4d26cc68d86aa0909eec1cc0,-1.239053,36.861288,Other Great Outdoors,KE
4d27174977a2a1cdc24a55b7,-1.281619,36.817702,Office,KE
4d2771716e27a143616f0f24,-1.307067,36.834071,Hospital,KE
4d277452fb8e5941858d4c54,-1.236026,36.870562,Government Building,KE
4d27feed77a2a1cd23605eb7,-1.287834,36.819147,African Restaurant,KE
4d2823f28292236a6a9b16bb,-1.330137,36.924754,Airport Terminal,KE
4d285dde8292236a338a18bb,-1.280511,36.825366,Miscellaneous Shop,KE
4d28769a8292236a447c19bb,-1.293159,36.817107,Scenic Lookout,KE
4d2aaef93c795481116fe29b,-1.297231,36.817912,Bank,KE
4d2ab0b8c406721edc0886b6,-1.288339,36.826392,Office,KE
4d2ab52b915fa093cf1f110a,-1.284362,36.82543,Bank,KE
4d2ac3ad3c795481ae05e39b,-1.287704,36.827543,Department Store,KE
4d2b069977a2a1cdef7079b7,-1.294072,36.83744,Factory,KE
4d2b21c1068e8cfa6524e04c,-1.300484,36.815378,Hotel,KE
4d2b5225ebacb1f77d190b50,-1.277127,36.770196,Track,KE
4d2c706655a8b60c1502f0c0,-1.322727,36.801581,Fast Food Restaurant,KE
4d2da17839a354812587b920,-1.322271,36.801586,Mall,KE
4d2dc50ba40da35dd2d59477,-1.308761,36.828704,Gym / Fitness Center,KE
4d2dee56da7cb60c15386bd4,-1.21946,36.883537,Bar,KE
4d2df1fe73e5a09391b14dcf,-1.292004,36.791468,Beer Garden,KE
4d2df6a1f01f2c0fc15e992a,-1.273746,36.805162,Arcade,KE
4d2e8a2e79dd6ea81c2b8ad3,-1.220095,36.905729,Home (private),KE
4d2f22d1d9d8a143ac4e00d8,-1.28244,36.830697,African Restaurant,KE
4d3067f82748b60cfa79dba0,-1.229134,36.804751,Caf,KE
4d3097e7b8e78eec57ba9752,-1.282193,36.827695,Bus Line,KE
4d319bda5c2db60cbaaeb96c,-1.313354,36.894974,Home (private),KE
4d31c12ac75a6ea8c84c07ae,-1.219539,36.712585,Salon / Barbershop,KE
4d329b688c42a1cd3bb9ea5d,-1.296133,36.840226,Church,KE
4d333d738c42a1cd5831f05d,-1.29038,36.770943,Fast Food Restaurant,KE
4d33ff975017a0936b4e579b,-1.293571,36.807039,Office,KE
4d3418af5017a093f400589b,-1.32444,36.790153,Tennis Court,KE
4d34603f2c76a143604584c7,-1.318372,36.812954,Gas Station / Garage,KE
4d34a6a05c2db60cf898d56c,-1.284257,36.824157,Bar,KE
4d3530968c42a1cd7592015e,-1.284802,36.82493,Convention Center,KE
4d3534948c42a1cd49b0015e,-1.279464,36.811571,Medical Center,KE
4d356741b6093704a66114e0,-1.240842,36.759842,College Classroom,KE
4d35aa67c75a6ea82a322aae,-1.3111,36.913466,Gas Station / Garage,KE
4d35aced329e548104ffcc1d,-1.298217,36.762368,Miscellaneous Shop,KE
4d3670c83612a093ad437f5d,-1.322644,36.788817,College Arts Building,KE
4d36b4d1d8caa1cd8fd66fd6,-1.294796,36.8147,Tech Startup,KE
4d36b9b676b3236acec4b379,-1.299953,36.759558,Government Building,KE
4d3706274d8a6dcbb17a663f,-1.329246,36.717854,Lounge,KE
4d37ba8f15993704a05db291,-1.298629,36.770591,College Administrative Building,KE
4d39251ac528548140eddfb9,-1.300843,36.825403,Music Venue,KE
4d3a8fde039eb60caebdec9c,-1.270139,36.836962,Student Center,KE
4d3a8febcc48224b5a8f3e4f,-1.282177,36.821045,Electronics Store,KE
4d3ac448720f60fcd042f3dd,-1.284643,36.755015,Home (private),KE
4d3acea3720f60fcb64cf3dd,-1.285931,36.825196,Bank,KE
4d3b61061fc36dcb4e0b71f5,-1.282919,36.817207,Lounge,KE
4d3bde42557d6dcb635c3544,-1.332474,36.761623,Wings Joint,KE
4d3be0f884d46ea88f48f95c,-1.298333,36.802769,Building,KE
4d3c00d8a2e4b1f78364e525,-1.287261,36.881777,Department Store,KE
4d3c359b6b3d236a98035f64,-1.263967,36.802527,Grocery Store,KE
4d3c373bcc4c5941237b1ce6,-1.242516,36.863852,Military Base,KE
4d3c4b75d2c8f04d4b556072,-1.287187,36.881026,Department Store,KE
4d3d51aad625224b369098fa,-1.281539,36.822691,Miscellaneous Shop,KE
4d3d8644af8ca1434a530cf7,-1.28579,36.821671,Conference Room,KE
4d3d89d96b3d236a6e8c6a64,-1.309214,36.812044,College Academic Building,KE
4d3dd1086e252c0f478de23b,-1.237533,36.737355,University,KE
4d3e8c99fb4c5481c5c9e614,-1.296507,36.805618,Doctor's Office,KE
4d3ea63dfb4c54810687e714,-1.263334,36.803432,Bank,KE
4d3f0fff84d46ea8acf6145d,-1.196966,36.924087,Bus Station,KE
4d4041d3915a3704c095137f,-1.282411,36.817675,Office,KE
4d41cd784acd236a7675fda9,-1.277312,36.786475,Beer Garden,KE
4d4277475d01224b04236050,-1.240123,36.817018,Park,KE
4d42865508d16dcb78507154,-1.2739,36.806045,Other Nightlife,KE
4d42cd5a9f7aba7a4e4228f9,-1.301113,36.815194,Other Nightlife,KE
4d42f20ff81e8cfab7a1f956,-1.254833,36.807633,Asian Restaurant,KE
4d43048eec7b59417a8203ab,-1.282817,36.822433,Bar,KE
4d430f13715fa14389ae67c0,-1.280866,36.813711,General Entertainment,KE
4d43225c85c1721e1815e692,-1.322169,36.803491,Housing Development,KE
4d432f5d184f2d43b1ee48a9,-1.313926,36.895566,Fast Food Restaurant,KE
4d4331f94097a35dc648f286,-1.310022,36.82677,Bar,KE
4d43bb422e326ea8e8fedca6,-1.205107,36.917729,Bank,KE
4d43d6631b62b1f72c6aece2,-1.250376,36.847211,Police Station,KE
4d43d9a77e2e54815d405a8f,-1.245558,36.844525,Doctor's Office,KE
4d43e111e198721e19d1b58b,-1.280314,36.770428,Miscellaneous Shop,KE
4d43eb1ae198721e7f28b68b,-1.299836,36.78365,Miscellaneous Shop,KE
4d43f9d1e198721ea3b1b68b,-1.324752,36.848787,Miscellaneous Shop,KE
4d44052fbbb1a143525c4172,-1.314279,36.841175,Home (private),KE
4d441c1dbefe236a8326f1e2,-1.217807,36.878037,Caf,KE
4d4440cc7e2e54818c505e8f,-1.285019,36.825161,Fried Chicken Joint,KE
4d45211abf61a1cd368310ac,-1.281445,36.814247,Church,KE
4d4544321ed56dcbd747b954,-1.290163,36.770938,Grocery Store,KE
4d454614c3e5f04df740a320,-1.298392,36.762034,Italian Restaurant,KE
4d45713fbefe236adf3dffe2,-1.329037,36.717896,Lounge,KE
4d46558a14aa8cfa1ede7b3d,-1.232842,36.815399,Office,KE
4d4687e01ed56dcb815bc654,-1.294559,36.789653,Housing Development,KE
4d4691bd1ed56dcba8b8c654,-1.290656,36.786175,Diner,KE
4d46c5da2e326ea81788faa6,-1.284359,36.81869,Building,KE
4d46d936bf61a1cdc9d920ac,-1.318991,36.845889,Bar,KE
4d46df012e326ea8d7a5fba6,-1.220438,36.884217,Home (private),KE
4d479190551db1f762039a30,-1.290391,36.819005,Capitol Building,KE
4d47c99d53ebba7a95ae59ac,-1.28584,36.820546,Building,KE
4d47d56b11618cfae77acd23,-1.301736,36.825246,Gastropub,KE
4d47f29b551db1f751b79d30,-1.307431,36.818919,Market,KE
4d481f15c3e5a35d2a9a9a4f,-1.275626,36.81318,Moving Target,KE
4d484eb7753aa0933258cee0,-1.264357,36.802517,Indian Restaurant,KE
4d49163ab73fb1f762efa332,-1.272395,36.880396,Gas Station / Garage,KE
4d499a78782f3704af236f37,-1.289018,36.796827,Bar,KE
4d4a7c6ff53c8cfacf752347,-1.278268,36.817123,College Lab,KE
4d4bc971b4b0a35d30cb14b4,-1.273382,36.811035,Conference Room,KE
4d4bf79e855b54814b99e28f,-1.327956,36.882649,BBQ Joint,KE
4d4c1bd9f523a1439c98729d,-1.261084,36.802149,Electronics Store,KE
4d4c316f190ba093ed281ea5,-1.334124,36.890706,Bar,KE
4d4cfd314aa3a09366173eae,-1.313526,36.803631,Medical Center,KE
4d4d2922fe7fb1f7df085942,-1.294967,36.877123,Pizza Place,KE
4d4d4361869cf04d4459dbae,-1.2808,36.812402,College Academic Building,KE
4d4d51d113d88cfa6f7507da,-1.284783,36.825303,Design Studio,KE
4d4e31d74a38b60c7191e766,-1.291911,36.805593,Church,KE
4d4e5e619a2a6ea89cf6216f,-1.301853,36.820472,Church,KE
4d4e664023a76dcbd2235fdc,-1.265042,36.799285,Church,KE
4d4e9be9a8fba143efd2451a,-1.28864,36.805798,Hotel,KE
4d4ea67be0f2a1cd4f4f8f8d,-1.331986,36.751508,Playground,KE
4d4eb322a0b0a093065b5083,-1.333444,36.750797,African Restaurant,KE
4d4eb52323a76dcb298362dc,-1.277291,36.792435,Bar,KE
4d4fa7953626a093b09712bd,-1.2683,36.83692,Arcade,KE
4d50bb0f747f6dcb9c36b9d4,-1.284925,36.822244,Office,KE
4d513903c5ff6ea85fe0a107,-1.335463,36.77977,Park,KE
4d513909d7eaa143bf5b700f,-1.336419,36.779775,Park,KE
4d515a2f7ee1a35d38c58e34,-1.275773,36.882297,Bar,KE
4d5162314015b1f7a4b86fcf,-1.323344,36.833609,Office,KE
4d5179efd7eaa143a280730f,-1.28151,36.817423,Dessert Shop,KE
4d5279f74015b1f774bf7acf,-1.261083,36.798751,Office,KE
4d52ccab8a592c0f020ca99f,-1.20837,36.875116,Office,KE
4d536b1a65586ea883cb6bc8,-1.261783,36.861973,Field,KE
4d5408b02e336a316e7534eb,-1.197754,36.927043,Department Store,KE
4d540aacbb47ba7ae90d4fd9,-1.283501,36.821713,Coffee Shop,KE
4d551f54ba5b224b2a8e0a14,-1.298214,36.762484,Pizza Place,KE
4d5537767afeba7a5e5e2356,-1.300138,36.781025,Mall,KE
4d55676316a6b60cf7904af8,-1.330187,36.925809,Caf,KE
4d564d1c96ed54818ff91270,-1.283771,36.879671,Bank,KE
4d56506358856dcbb1f2556d,-1.28175,36.821949,Fast Food Restaurant,KE
4d566ef448ea6ea8118be0a3,-1.314279,36.841175,Home (private),KE
4d5684f1a747b60cf24b292b,-1.31391,36.895437,Bakery,KE
4d56a3bc96ed5481c9fe1670,-1.256102,36.802417,Food Court,KE
4d56adadb4deb1f7d3c2137a,-1.313938,36.827785,Beer Garden,KE
4d57c35b577aa093aabd49b9,-1.209843,36.8511,Pool,KE
4d57cf7aafe4b60c1f214961,-1.3098,36.827721,Spiritual Center,KE
4d57e14792326ea8e88c5fc0,-1.271372,36.806476,Gym,KE
4d583e3661e92d43b54a7768,-1.311073,36.814359,Arcade,KE
4d58c4b0296d548122c951b1,-1.302397,36.810998,Office,KE
4d58e0d09b302d43a4d61e34,-1.249253,36.858788,Government Building,KE
4d58e1199b302d4312d91e34,-1.253715,36.852264,Government Building,KE
4d5a42b5296d5481058761b1,-1.29589,36.804178,Hospital,KE
4d5a5c5056f2b60c0cd4822f,-1.257708,36.8031,Clothing Store,KE
4d5a790d8492a143c09a3327,-1.237249,36.844252,Government Building,KE
4d5aba6523e0a093e7745249,-1.287789,36.825435,Salon / Barbershop,KE
4d5bef43b9b2a1430deb6f8c,-1.28813,36.826155,Road,KE
4d5bf5ff5d153704f0a46ce7,-1.283096,36.821902,Nightclub,KE
4d5c126eddac721e2df069fe,-1.268206,36.808877,Home (private),KE
4d5cb444bee2ec4ae44d6d92,-1.282903,36.825246,African Restaurant,KE
4d5d535ab9b2a14305dd808c,-1.311898,36.908147,Fast Food Restaurant,KE
4d5e254f00942d438a816bf3,-1.268206,36.808877,Home (private),KE
4d5e8106e4fe5481a194689e,-1.289122,36.804068,Arcade,KE
4d5fccb2b19fa143d72aecc8,-1.328421,36.891914,Pizza Place,KE
4d602d49b19fa14373aef1c8,-1.26215,36.802354,Bar,KE
4d60343e338bb60cec9525bd,-1.265975,36.797705,Wine Bar,KE
4d6100f7291059416f95fb46,-1.301963,36.826013,Department Store,KE
4d6139501ee8721e2bc4b321,-1.294276,36.791321,African Restaurant,KE
4d613bf71939a35decea2aee,-1.293816,36.78723,Bar,KE
4d62233814963704fdddfa94,-1.28437,36.823758,Electronics Store,KE
4d625ae9d439cbff10d266ba,-1.290859,36.824659,Post Office,KE
4d636de961dda143a3631d18,-1.259377,36.785398,Office,KE
4d63ed03625f6dcb5d0a715e,-1.235293,36.811266,Office,KE
4d64992536a96dcbb1a851f4,-1.318825,36.90864,Road,KE
4d666a2c485ab1f705f96949,-1.296112,36.815499,Office,KE
4d666c9ca282a1cd2b432e64,-1.282566,36.82728,African Restaurant,KE
4d669b5c485ab1f7c72c6c49,-1.322983,36.787336,Home (private),KE
4d66da5c84f28cfa83547069,-1.294796,36.798715,Nightclub,KE
4d6760dbfd1b8cfac9e81cf0,-1.28801,36.818601,Government Building,KE
4d679bfd7579224b7bd9019a,-1.222514,36.854605,Garden,KE
4d680ded6d6a236a1ebe382a,-1.311032,36.836915,Bar,KE
4d68e38fc165548155b0e481,-1.293831,36.876645,Automotive Shop,KE
4d68f2772acd6ea87db533c0,-1.287317,36.830066,Drugstore / Pharmacy,KE
4d69406e342b8cfa2d25c62c,-1.327443,36.892608,Residential Building (Apartment / Condo),KE
4d6a34074c463704b442adb3,-1.229005,36.805061,Sports Bar,KE
4d6a8221c1655481efdbf881,-1.324349,36.796927,Pub,KE
4d6b9696d2596ea87b157320,-1.26103,36.798857,Office,KE
4d6bb058994f224bb76417eb,-1.260148,36.802038,Gym,KE
4d6bc56db3e4a14392cae990,-1.318344,36.841939,Office,KE
4d6cbbfe183a236a1874563a,-1.294857,36.806566,Doctor's Office,KE
4d6cec924b86a090f2ca590a,-1.269526,36.794492,Road,KE
4d6d44f568406ea8d1007483,-1.311562,36.835338,Lounge,KE
4d70b9f3b246a093626e225f,-1.21783,36.878783,General Entertainment,KE
4d70bf71812e2c0f45c3f37a,-1.321997,36.706331,Monument / Landmark,KE
4d70c116812e2c0f39d7f37a,-1.31258,36.702747,Other Great Outdoors,KE
4d70c98e9afdb60cd8c53752,-1.288454,36.822249,Auditorium,KE
4d715315e97f236a317756b3,-1.323169,36.776564,Home (private),KE
4d7214724ab5224bf677b997,-1.217463,36.879177,General College & University,KE
4d726b3e3815f04d401c8d67,-1.265015,36.815052,Indian Restaurant,KE
4d7362ba2804cbff4bc8b7de,-1.291857,36.821623,Mall,KE
4d738387311f6ea86b7ceaea,-1.239514,36.745035,College Residence Hall,KE
4d738f302d6ca090bb103d50,-1.283491,36.821162,Library,KE
4d73926a2d6ca09095333d50,-1.287781,36.825367,General Travel,KE
4d73dae9311f6ea86ec6eeea,-1.29906,36.764572,Hotel,KE
4d73de458e12b1f7f5224f05,-1.238232,36.865666,Bar,KE
4d74ceebddcbcbff7f185bca,-1.282732,36.817144,Building,KE
4d75bdba6c22b60c4144dfd6,-1.299028,36.805298,Library,KE
4d75d88208b42d4310d75f50,-1.279467,36.81502,Performing Arts Venue,KE
4d760833497fa143ee05d825,-1.231972,36.813823,Office,KE
4d762c31ec646dcbdf1ef710,-1.299359,36.805267,Medical School,KE
4d764bca497fa143c52fdc25,-1.286635,36.825298,Caf,KE
4d7655f2b8e28cfa9f0a0567,-1.284712,36.823453,Hotel Bar,KE
4d766ef430f5a35de6782a97,-1.228323,36.840079,Bar,KE
4d7718f2d10fa1438467c43d,-1.336487,36.919661,Office,KE
4d7770f39054a09006093823,-1.288871,36.826791,Office,KE
4d7873c7109eb1f7cd035006,-1.32648,36.787139,Hospital,KE
4d78bb0b9e57a093cd17c82b,-1.312458,36.779292,Housing Development,KE
4d78e3acb706224bf0c52f8d,-1.284887,36.822664,Bookstore,KE
4d794e42542ab1f7d7fe7a41,-1.267082,36.817255,BBQ Joint,KE
4d79f890c307a35d13e04c31,-1.28568,36.822985,Cosmetics Shop,KE
4d7b32c134f7721e5658ae25,-1.287684,36.883621,Pizza Place,KE
4d7b602234f7721ec3f7b025,-1.272786,36.810919,Office,KE
4d7b68258f89224bafd88f26,-1.271063,36.805971,Residential Building (Apartment / Condo),KE
4d7b817cd0005941fc8b0957,-1.327163,36.823989,Arcade,KE
4d7b9b735a396dcb3ea762fb,-1.329835,36.889273,Department Store,KE
4d7cc212da568cfa12ee6bff,-1.261773,36.824694,Hospital,KE
4d7cdd5c86cfa14395bfd1a0,-1.298492,36.75859,Bar,KE
4d7df65febc15481affad8a6,-1.276831,36.827264,Theater,KE
4d7dfd75b25d6dcb4133b042,-1.294471,36.812449,Building,KE
4d7e0ba96174a35d795a8103,-1.285376,36.821303,Caf,KE
4d7f07ab2ff9b60c6dd4b647,-1.278448,36.817255,College Engineering Building,KE
4d7f1ca3dd4a6ea878df7425,-1.271783,36.809405,Office,KE
4d7f4095b25d6dcb29e8c842,-1.328192,36.872584,Beer Garden,KE
4d7f6845dd4a6ea814da7925,-1.290557,36.82207,Government Building,KE
4d7ffb87577eb1f71a36a0d3,-1.258065,36.805672,Other Nightlife,KE
4d8038dc8edaa1438002eb39,-1.281203,36.822381,Bakery,KE
4d8057eddbc5f04d3264f6b6,-1.288178,36.881121,Bus Station,KE
4d806720360b224ba975d956,-1.279591,36.814873,College Academic Building,KE
4d8072f6a4e23704fcd9b4cc,-1.260279,36.788192,Building,KE
4d8091f84a984eb9921d26e8,-1.280444,36.840849,High School,KE
4d81a07259d16dcb2009fd1b,-1.285144,36.883915,Bus Station,KE
4d81a8eb0d5b8cfa39f44328,-1.284314,36.828647,Bakery,KE
4d81b4b2ebb4236a0ef34458,-1.284873,36.851967,Boutique,KE
4d821453bede54815fa50ad1,-1.262994,36.760416,Meeting Room,KE
4d822bde2ad9a1437ac18128,-1.219596,36.891862,Convention Center,KE
4d82de1702eb548134e60ef5,-1.293179,36.820961,Road,KE
4d82fc2c5e70224b69cfee08,-1.264521,36.720507,Church,KE
4d83029302eb5481c45011f5,-1.311933,36.907459,Residential Building (Apartment / Condo),KE
4d830f6102eb54812d1a12f5,-1.285234,36.818148,Building,KE
4d831b17d5fab60c2c4ac59b,-1.2845,36.819952,Shoe Store,KE
4d846f29d5fab60ceb6de19b,-1.223369,36.887235,Baseball Field,KE
4d848e378de9721e9dff3251,-1.276922,36.770901,Department Store,KE
4d84abea99b78cfa3d31bc1f,-1.284027,36.823138,Caf,KE
4d84ef85f1e56ea843907f8a,-1.295067,36.796933,Bar,KE
4d859d84f9f3a1cdd909d064,-1.319499,36.837435,Food & Drink Shop,KE
4d86e7e8ace28eeca5c83297,-1.300556,36.823382,History Museum,KE
4d875e5df1e56ea84c94ae8a,-1.279933,36.815851,College Academic Building,KE
4d88463a7d4c5481e0923c71,-1.278058,36.814069,General Entertainment,KE
4d88471bd85f3704303fcedb,-1.285703,36.822402,Office,KE
4d886a1ce60c2c0fbda0b23a,-1.28296,36.821923,African Restaurant,KE
4d886bd5e60c2c0f0cadb23a,-1.282182,36.823769,Mall,KE
4d8885fe6daeb60c12eb3be0,-1.31238,36.816876,Office,KE
4d88b270b799a35debcf8663,-1.300051,36.802189,General College & University,KE
4d88b2f2401a224b36457d18,-1.279855,36.817065,Coworking Space,KE
4d88b8d04757721ecb209369,-1.313771,36.819268,College Academic Building,KE
4d899c6f26a36ea8f743e3ad,-1.285627,36.823069,Coffee Shop,KE
4d89cdd2f607a0931bfbf086,-1.285318,36.820746,African Restaurant,KE
4d89ffd97139b1f710d7c0d4,-1.283741,36.808877,Home (private),KE
4d8a048b26a36ea87d6cebad,-1.273671,36.80452,College Library,KE
4d8a3cd0a0afdcb306a9a4ab,-1.19636,36.937984,Home (private),KE
4d8a529e99c2a1cd2e478ed7,-1.271821,36.803668,College Residence Hall,KE
4d8af39d99c2a1cd43389bd7,-1.304438,36.855818,Office,KE
4d8b1ee75ecdf04daa2fcc8a,-1.30699,36.736735,Hospital,KE
4d8b27a6d85f3704054a0ddc,-1.285849,36.822733,Cosmetics Shop,KE
4d8b98be761e224bc8f7bf29,-1.298961,36.836857,Pizza Place,KE
4d8c4884fdd3b1f7fd396ada,-1.29921,36.796764,Building,KE
4d8c63fc7bc4224b75ea4022,-1.312365,36.816708,Medical Center,KE
4d8ccd805091a1cdbee56801,-1.284817,36.824946,Pizza Place,KE
4d8d814b2d86d7cea70677cb,-1.309257,36.812817,General College & University,KE
4d8dd5a33bfef04d0e3e8986,-1.294496,36.788023,Bookstore,KE
4d8dd980d00a6ea8a098aa4f,-1.292966,36.78776,Furniture / Home Store,KE
4d8e198dd00a6ea8d3fbb04f,-1.284232,36.81971,Farmers Market,KE
4d8e1d091716a143a0d129f7,-1.283158,36.902434,Sports Bar,KE
4d8f0848d4ec8cfa0a0a8289,-1.300197,36.755015,Home (private),KE
4d8f29cad4ec8cfae1b88489,-1.294176,36.821114,General Travel,KE
4d8f4a93fa943704dfc616c6,-1.228879,36.841175,Home (private),KE
4d8f66dc6174a0931f38dde3,-1.264241,36.802669,Lounge,KE
4d9014dffa943704141d2ac6,-1.325885,36.791342,Housing Development,KE
4d901f54accf2d43dc4cc2d6,-1.281646,36.823264,Fire Station,KE
4d905a76c479a35d90816f97,-1.30654,36.874407,Building,KE
4d9067e3788c54816b3563fd,-1.28085,36.816471,University,KE
4d9079f03bfef04de3c8c386,-1.2866,36.813827,Bank,KE
4d907e1734f2cbff58aac6e3,-1.318801,36.897111,African Restaurant,KE
4d90bdea5091a1cdbd10c201,-1.323317,36.783163,Bar,KE
4d90d4fa5234a0901bbacebd,-1.277898,36.8086,Medical Center,KE
4d9177c11e8788bf480b4905,-1.27257,36.811555,Building,KE
4d9189b7d7b1236a71db3238,-1.286683,36.825514,Breakfast Spot,KE
4d9189caecac4eb9fa3e49db,-1.21814,36.878998,University,KE
4d91c9a87379b60c7a96d307,-1.254212,36.792165,Building,KE
4d9200423dd4a093cc6d8618,-1.218932,36.892424,Baseball Field,KE
4d930574f10ea093fe121f1e,-1.308149,36.909386,Miscellaneous Shop,KE
4d9334c162ad5481963d7c4b,-1.322691,36.706987,Gas Station / Garage,KE
4d940a1545ae54810146fceb,-1.233398,36.80635,Other Great Outdoors,KE
4d94227caf6737049ff07409,-1.196469,36.923887,Department Store,KE
4d943df4cf46224b9e099094,-1.287914,36.819095,Resort,KE
4d945d2758caa143688aa825,-1.320676,36.805982,Bank,KE
4d945f8caf673704b19b7909,-1.264136,36.803074,Bank,KE
4d94aa9558caa14372c7b025,-1.275294,36.813874,Road,KE
4d94e72be923721ecb1777fe,-1.267544,36.83595,African Restaurant,KE
4d94e7a95241a1cd486d6a4b,-1.266944,36.836247,Movie Theater,KE
4d9579a50caaa143f4ee5eb3,-1.31325,36.916978,Coworking Space,KE
4d95bd1fe07ea35d047cad02,-1.265736,36.817428,BBQ Joint,KE
4d95c36adaec224b926b053e,-1.26076,36.795533,Office,KE
4d9601e4c910d7ce72ed3f55,-1.293046,36.787528,Bar,KE
4d96109e9079b1f7e4b6f009,-1.300601,36.756049,African Restaurant,KE
4d96d5e40caaa143bf6682b3,-1.289579,36.885149,Coffee Shop,KE
4d9701c92bd6f04d82234450,-1.282741,36.818075,Scenic Lookout,KE
4d973de897d06ea8b74b160b,-1.295285,36.799803,Gas Station / Garage,KE
4d9754f99aec59416b3e7164,-1.28303,36.824447,Movie Theater,KE
4d97691797d06ea833431b0b,-1.281946,36.815701,College Arts Building,KE
4d981011e07ea35d9f11ea02,-1.28606,36.790889,Office,KE
4d9837ac9079b1f785b1260a,-1.298329,36.762041,Drugstore / Pharmacy,KE
4d983a3861a3a1cd650bc942,-1.315784,36.814016,Road,KE
4d98557bd7366a31a7a50a0b,-1.298421,36.762271,Caf,KE
4d985dce454edcb30bddd06a,-1.298421,36.762271,Multiplex,KE
4d98608fa2c65481bfa6ef53,-1.298421,36.814657,Office,KE
4d986176c19fb60c5bddac65,-1.259729,36.796704,Indian Restaurant,KE
4d98726d2bd6f04d03e36750,-1.27152,36.820421,Asian Restaurant,KE
4d9987e6b188721eed1c4037,-1.31567,36.922523,Doctor's Office,KE
4d99abdaa2c65481b84b0c54,-1.2862,36.818214,Post Office,KE
4d99c0deb188721ee9dc4437,-1.284633,36.82023,Bank,KE
4d99d83e97d06ea8dac7520b,-1.264458,36.784793,Motel,KE
4d9a930a7668f04d654abf93,-1.266596,36.805782,Restaurant,KE
4d9ac71d17a4236a1bddd159,-1.289274,36.787847,Office,KE
4d9ad56be9815941e2efd6d8,-1.283642,36.816282,Mall,KE
4d9b23bd7668f04df6baca93,-1.287263,36.881262,Department Store,KE
4d9c200c20b72d432fc6a106,-1.272593,36.806946,College Technology Building,KE
4d9c78a88ab0530cae5d417e,-1.276658,36.822465,University,KE
4d9d67975c33a35dd2c800a1,-1.311556,36.909076,Office,KE
4d9de5cea3cf14566b419480,-1.228747,36.840515,Beer Garden,KE
4d9eaf6e2052f04dd0f3ba94,-1.25859,36.772016,Government Building,KE
4d9ef841ded9a0930c1cfa06,-1.28333,36.824478,Arcade,KE
4d9efc709bf0a35dfd13060b,-1.282483,36.816192,Bank,KE
4d9f0ec48ef3a1430ff88910,-1.275258,36.82884,Church,KE
4d9f774649afb60c96ae9e8d,-1.284195,36.824404,Pub,KE
4da01e6ca77d816e74981109,-1.295032,36.799356,Arcade,KE
4da02872a77d816ea63d1209,-1.294865,36.799993,Liquor Store,KE
4da090134977236a886bc696,-1.292855,36.787812,Food Court,KE
4da0beaf9aa4721e646eeb19,-1.297669,36.758401,Beer Garden,KE
4da0c5787aee5481c27ab2fe,-1.319919,36.849712,Residential Building (Apartment / Condo),KE
4da1aad4bf22a143a270a0f8,-1.325508,36.691638,Government Building,KE
4da1d3e0b1c9370484d6d6a1,-1.320086,36.848567,Residential Building (Apartment / Condo),KE
4da1fedabfa5dcb3fd240f44,-1.262493,36.81695,Other Nightlife,KE
4da2970a0f578cfaba54a618,-1.301458,36.779828,Department Store,KE
4da2c94a22a5f04d2ab11655,-1.299483,36.823821,Office,KE
4da2f7002939b1f7ebd21357,-1.282403,36.818748,University,KE
4da314adbf22a14316c3bff8,-1.273339,36.833908,Community College,KE
4da31a72c6e96ea81719e25d,-1.282297,36.822055,General Entertainment,KE
4da3f27c9935a093ff8bd36f,-1.268688,36.908956,Gym,KE
4da3f96763b5a35dd7dc1c1a,-1.325123,36.849907,Building,KE
4da4086eb3e7236aa02d3e79,-1.302567,36.776422,Dance Studio,KE
4da54a544b2280544b5a0e37,-1.299194,36.790621,Tech Startup,KE
4da554ad93a01f42fac44a17,-1.273547,36.91021,Bank,KE
4da562f68154a54251b749ba,-1.32296,36.706635,Bank,KE
4da5699fa86e226c26b6635d,-1.273288,36.81114,Department Store,KE
4da571f86a23904516cadab7,-1.297064,36.806176,Government Building,KE
4da59631ffcb69fe49ccee6a,-1.195106,36.936679,Racetrack,KE
4da5ac82cda1c55f755aff5e,-1.282423,36.816356,Other Great Outdoors,KE
4da6aaa96a230db30ec7a803,-1.30664,36.819925,Hospital,KE
4da6dd40f7b15dc952ecfdde,-1.267549,36.810083,Office,KE
4da7edf093a021ab13be691e,-1.260587,36.787507,Office,KE
4da81d5d5da3ef8bf155fd29,-1.282648,36.815856,Building,KE
4da84ed0415918ceb96c42fa,-1.219203,36.878814,College Library,KE
4da8689ecda119a2c8fcb7dd,-1.304689,36.772337,Convenience Store,KE
4da8b03bcda119a2c903f28d,-1.275916,36.813296,Pool Hall,KE
4da90df9ced7149bd6c0d0b2,-1.27993,36.816955,Church,KE
4da95c970c53b4e702cce732,-1.283332,36.816666,Tech Startup,KE
4da9660a561462f27d8b351d,-1.218546,36.878904,College Lab,KE
4da98fe7f7b145b36ff99cc2,-1.231038,36.863831,Beer Garden,KE
4da9a0fd0cb6a89c62598856,-1.219674,36.900506,Pub,KE
4da9cc634df01c19b17a426c,-1.308091,36.822775,Fast Food Restaurant,KE
4da9ef94fa8cc7649727fa0e,-1.279772,36.810409,College Cafeteria,KE
4daab98043a1128196fee766,-1.285116,36.820178,Salon / Barbershop,KE
4daac1517abaf9a10c182f83,-1.286442,36.826297,African Restaurant,KE
4daac843cda1652a2b945601,-1.284072,36.82278,Professional & Other Places,KE
4daac8e0fa8cc764973cc22d,-1.286835,36.825924,Department Store,KE
4daad2c14b22f071eac029de,-1.263243,36.775133,Music Venue,KE
4daafe10cda1652a2b98b64b,-1.308746,36.909895,Bar,KE
4dab06650f2ce1d38370cf28,-1.28273,36.818154,Salon / Barbershop,KE
4dabb6d6f7b145b3702cc642,-1.329729,36.924979,Airport Gate,KE
4dabc8810cb6a89c628aa0a9,-1.300395,36.780252,Convenience Store,KE
4dabf53e1e72c1ab9c14addd,-1.316226,36.921528,College Technology Building,KE
4dac053bfa8cc76497591d61,-1.245228,36.866915,Bank,KE
4dac1b198154abafc2cfbf79,-1.321418,36.807847,Library,KE
4dad0f61a86e7fc66e29ca7c,-1.329541,36.687061,Bank,KE
4dad19e06a23fc68ff41d22f,-1.259931,36.785335,Building,KE
4dad3b3dfa8cf64d8043455a,-1.257275,36.802343,Building,KE
4dad6d554b2271d46ba52b67,-1.296019,36.807289,Medical Center,KE
4dad9a526a23037eec936698,-1.213303,36.894477,Residential Building (Apartment / Condo),KE
4daea3875da3cca6f0acbd94,-1.2606,36.827254,Hockey Arena,KE
4daeb2944df0f639f2506595,-1.27183,36.878925,Building,KE
4daeb3bd4159a4b570aafa8f,-1.329312,36.865568,Building,KE
4db03123415985f6e9f7c7b2,-1.250208,36.846901,Police Station,KE
4db04d840437a93f7f71a757,-1.328792,36.884151,Road,KE
4db054805da32cf2df4750d1,-1.24091,36.875493,School,KE
4db05929fa8ca4b3e9e17005,-1.29946,36.792835,Road,KE
4db09e346a231f2e4a596b6b,-1.28525,36.822181,Road,KE
4db25232043733cda522ca9e,-1.311913,36.858609,Coffee Shop,KE
4db2a15e1e7229bb763e94eb,-1.216033,36.903662,Hotel Bar,KE
4db3f45b1e7248d13597adaf,-1.279258,36.850416,Hotel,KE
4db41d55432d4bbfa1936265,-1.327279,36.710426,Church,KE
4db529c343a1369cb5c958aa,-1.280581,36.690453,Non-Profit,KE
4db543cc81543d71da540bf9,-1.208767,36.927447,Hardware Store,KE
4db5534c43a1369cb5cc1581,-1.268452,36.833682,African Restaurant,KE
4db5b7f9f7b121c29f6474ea,-1.245028,36.871129,Road,KE
4db685a20f2cc52c211793aa,-1.281954,36.817055,Convenience Store,KE
4db691ed0f2cc52c2117c57a,-1.282548,36.812875,College Residence Hall,KE
4db6b0e8432d4bbfa1a4a2a1,-1.27942,36.791212,Residential Building (Apartment / Condo),KE
4db6f8060437fa536a62ddd4,-1.266785,36.811918,Hospital,KE
4db6ff296e8179a913af141a,-1.296901,36.797311,Restaurant,KE
4db7fc42cda10515411dc58c,-1.294255,36.791278,African Restaurant,KE
4db801ea107f93d63caa6f96,-1.27455,36.800093,Gas Station / Garage,KE
4db8055b34dc59f97bdf61da,-1.293208,36.787183,Office,KE
4db8426b04376df99770d9b9,-1.282652,36.820562,Clothing Store,KE
4db885d90cb6ddfae4229b22,-1.271972,36.804357,Miscellaneous Shop,KE
4db8fb5d0437609120f87fba,-1.282327,36.81797,Building,KE
4db9036a5da3b5fa68cc5728,-1.292142,36.81339,Courthouse,KE
4db90e79ec8e496dbbb00845,-1.196155,36.924376,Bus Station,KE
4db91c595da3b5fa68cdf890,-1.288133,36.74413,Market,KE
4db943684df0ded98bcd9d94,-1.298444,36.762573,Mall,KE
4db952e38154ce84dc24b92d,-1.218517,36.901242,Sculpture Garden,KE
4db9605b8154ce84dc25ff30,-1.281831,36.821592,Fried Chicken Joint,KE
4db96c754df0ded98bd16999,-1.282642,36.827254,Travel & Transport,KE
4db9d16493a0805548280edc,-1.197035,36.894974,Home (private),KE
4dba426b1e7251d53c78c1ba,-1.330481,36.925168,Airport Gate,KE
4dba4af2f7b144688ff65a53,-1.278268,36.816298,College Science Building,KE
4dbaa5f14df0cac21af36e92,-1.300122,36.786903,Indian Restaurant,KE
4dbabd34ffcbcd48566207a3,-1.290108,36.809647,College Residence Hall,KE
4dbad2111e7251d53c85426c,-1.272437,36.811363,Bank,KE
4dbad8226a23e294ba0509b8,-1.255478,36.695519,Other Great Outdoors,KE
4dbb26454159a4e20f5392df,-1.285161,36.879928,Music Venue,KE
4dbb67a41e72b351ca9914ca,-1.269197,36.824194,Church,KE
4dbbb3d0a86e0e98a1d1521d,-1.259804,36.823395,Cricket Ground,KE
4dbbe4d16e810768bf4f9cd9,-1.264405,36.805882,Fast Food Restaurant,KE
4dbbe6d11e72b351caa43e4b,-1.262906,36.803884,Chinese Restaurant,KE
4dbbf3e74df044e524d6aa9b,-1.323359,36.77874,Police Station,KE
4dbbff72815439392f98b425,-1.26424,36.803879,Ice Cream Shop,KE
4dbc18db815439392f9a57a1,-1.257962,36.782295,High School,KE
4dbc24636e810768bf55e1cd,-1.278673,36.877895,Gas Station / Garage,KE
4dbc3b73cda109aa6c958d5a,-1.301793,36.780133,Bar,KE
4dbc556243a1d8504b88e60c,-1.281991,36.873083,Hospital,KE
4dbc56a60437955ec0305f48,-1.234489,36.872348,Bar,KE
4dbc7d2b0437955ec03516f7,-1.261291,36.825151,Spiritual Center,KE
4dbd1b79cda109aa6cac2166,-1.326341,36.876729,Church,KE
4dbd32740cb691071cb4c08e,-1.307609,36.776564,Home (private),KE
4dbd393a7aba1fe0fb4e7889,-1.297584,36.805209,Bus Station,KE
4dbd50b96e810768bf734bb8,-1.263157,36.803326,Burger Joint,KE
4dbd6c8f815439392faf4cf5,-1.284996,36.824867,Convention Center,KE
4dbd8bf74df044e524fdeecc,-1.210929,36.893994,Department Store,KE
4dbe37bfced7ea5898db29c2,-1.287288,36.830597,Farmers Market,KE
4dbea44db592b4962be1615e,-1.303484,36.774158,Church,KE
4dbed6824b222080d3c95a0c,-1.32872,36.800839,Golf Course,KE
4dbed789fa8cee7273897e86,-1.306505,36.803064,Housing Development,KE
4dbed93293a08f9274f540a8,-1.293103,36.82104,Gas Station / Garage,KE
4dbee71c43a1d8504bc9d0a8,-1.263377,36.808101,BBQ Joint,KE
4dbf991cf7b115b875cdfa3d,-1.299514,36.779423,Gas Station / Garage,KE
4dbfa4265da386e218b60146,-1.310668,36.814253,College Technology Building,KE
4dbfa9af4b2221ec2d5f83a1,-1.300147,36.786992,Bank,KE
4dbfb530fa8cc78a86186212,-1.283988,36.825514,African Restaurant,KE
4dbfba40043706a03204877e,-1.266511,36.748737,Bank,KE
4dbfc1e94df0f8fd6b8d14c1,-1.325541,36.849576,Office,KE
4dbfdf8b043706a032075e1a,-1.233369,36.872621,Grocery Store,KE
4dbfe54d81545e1cc7d75691,-1.292773,36.812901,Building,KE
4dbfea964df0f8fd6b9028f3,-1.261827,36.82309,Medical Center,KE
4dbfeb49043706a0320884ce,-1.285593,36.818672,Bank,KE
4dbfec3ba86e2f4250b4bd9e,-1.281217,36.817578,University,KE
4dc01674a86e2f4250b8d9b6,-1.295033,36.798699,Professional & Other Places,KE
4dc018141e72dd48b200730b,-1.310018,36.828762,Road,KE
4dc0c713c65b268b41cd1fcb,-1.319358,36.836913,Dessert Shop,KE
4dc0d11fe4cda3b87f142dee,-1.252501,36.819644,Home (private),KE
4dc0efa545dd472e9b6c4585,-1.281224,36.69198,Non-Profit,KE
4dc0f8d522713750ba725792,-1.294429,36.812313,Government Building,KE
4dc0fe901f6e7441cf43b7a2,-1.317244,36.790027,Church,KE
4dc105c6ae60533f34e87158,-1.276871,36.808926,College Cafeteria,KE
4dc1112ec65b268b41d2c268,-1.292319,36.841041,Soccer Field,KE
4dc11604b59242d36fbca1ac,-1.293316,36.788321,Bank,KE
4dc11f6722713750ba74fbae,-1.296662,36.761885,Residential Building (Apartment / Condo),KE
4dc12e728877c00d6ad1cd99,-1.308817,36.812723,Restaurant,KE
4dc1a2fd0f2c14a8450ef5ad,-1.278668,36.810499,College Residence Hall,KE
4dc1aed81f6e7441cf53c2bc,-1.297822,36.894974,Home (private),KE
4dc25d8c1838ada6b2611577,-1.293078,36.787734,Coffee Shop,KE
4dc2715418506ca691c813c3,-1.288783,36.828694,Government Building,KE
4dc28685887770a6be00f521,-1.285333,36.825172,Shoe Store,KE
4dc288e4887770a6be012ee0,-1.281516,36.825618,Professional & Other Places,KE
4dc297c53151b36837ae0faf,-1.2646,36.741919,History Museum,KE
4dc29fd552b1c1fb37ec878a,-1.285428,36.822066,Shoe Store,KE
4dc2c1381838ada6b26a991e,-1.282625,36.824404,Bus Station,KE
4dc2c3431f6ebdce472ff2f3,-1.278943,36.821151,Bus Station,KE
4dc2d0bbae60966750b33413,-1.282463,36.820067,African Restaurant,KE
4dc2f722cc3f0ed9733a9b1f,-1.294528,36.787855,Residential Building (Apartment / Condo),KE
4dc3859e7d8b14fb45fa7dde,-1.317291,36.917939,Building,KE
4dc3a2adb3ad80073d08222d,-1.295028,36.79964,Bank,KE
4dc3b239b0fb5556ccc41df8,-1.261072,36.802452,Convention Center,KE
4dc3c0db1fc749941276b450,-1.278859,36.817397,College Residence Hall,KE
4dc3c48e887717c87ff7d4f5,-1.263928,36.719097,Bus Line,KE
4dc3c5cee4cd169dc6217cdc,-1.281929,36.722378,Steakhouse,KE
4dc3d5692271f27051031dc9,-1.328762,36.882386,Hardware Store,KE
4dc3f9d4887717c87ffd1470,-1.299506,36.792146,General Entertainment,KE
4dc411ba15207638d24735ed,-1.284449,36.770202,Church,KE
4dc420882271f270510b2748,-1.3101,36.8322,Bar,KE
4dc422b3d22dafda2f8340b5,-1.283563,36.821639,Bar,KE
4dc425a9ae608779d119df6c,-1.313773,36.82329,Professional & Other Places,KE
4dc42b552271f270510c6c74,-1.324537,36.787649,Housing Development,KE
4dc42fb1d164eb9c9fcee061,-1.270416,36.816124,Chinese Restaurant,KE
4dc4377fd4c0ad9c0f68eb91,-1.328826,36.800939,Pool,KE
4dc4ec1245dd26455263af9e,-1.295065,36.763436,Residential Building (Apartment / Condo),KE
4dc4fb7bc65b89d3ca62b44f,-1.260454,36.795701,Restaurant,KE
4dc4fc28922ef0b112594057,-1.246421,36.864924,Gas Station / Garage,KE
4dc5344bd22dafda2f9db82e,-1.293418,36.786953,Tech Startup,KE
4dc54cc2887717c8801ecd07,-1.235857,36.813348,Field,KE
4dc5535a1f6ef43b8a11e26d,-1.285813,36.82277,Wine Bar,KE
4dc56fd8b0fb5556ccf040c8,-1.287513,36.741067,Bar,KE
4dc635b32271f27051418823,-1.318681,36.841099,Pub,KE
4dc65f30d164eb9ca006d0ec,-1.204037,36.915629,Bank,KE
4dc6772fe4cd169dc6662d4f,-1.294798,36.855119,Road,KE
4dc68109cc3ff3b304645459,-1.263712,36.803169,Italian Restaurant,KE
4dc690b3ae608779d156b626,-1.300703,36.81635,Middle Eastern Restaurant,KE
4dc6af7ad22dafda2fc3058e,-1.297549,36.823605,Bar,KE
4dc6c4b32271f270514d8b87,-1.287752,36.82012,Bar,KE
4dc6d45eb0fb5556cd131de3,-1.265376,36.804999,Falafel Restaurant,KE
4dc6d55852b1e8f9f7f681b8,-1.269359,36.741098,Housing Development,KE
4dc6d98b18387d1bd561e829,-1.257928,36.70208,Bus Station,KE
4dc79fd5d4c0ad9c0fbc3036,-1.264222,36.804142,Office,KE
4dc7aa61d164eb9ca02400a1,-1.266071,36.80877,Coworking Space,KE
4dc7ac95ae608779d1700f46,-1.291493,36.8236,University,KE
4dc837f01f6e53d70482f867,-1.290082,36.758364,Office,KE
4dc90bb01f6e936efe508960,-1.239327,36.811887,Capitol Building,KE
4dc924752271353fc8ebe2bd,-1.290654,36.770238,Deli / Bodega,KE
4dc958acb0fb5d096034da4b,-1.281921,36.816945,Grocery Store,KE
4dc964efb0fb5d0960362ba8,-1.282801,36.826907,Roof Deck,KE
4dca70effa7684db090061bd,-1.279141,36.850789,Bus Line,KE
4dcae2701f6ea1401d33357e,-1.25683,36.828689,Jewelry Store,KE
4dcae38db0fbd92b292ba8c5,-1.260277,36.813879,Bakery,KE
4dcb6487ae60f205440eb663,-1.216734,36.887723,Residence,KE
4dcb70c9c65bccd867470130,-1.279257,36.850558,Food Court,KE
4dcbae3efa76d745f059384a,-1.265774,36.818432,College Library,KE
4dcbfcfed16478749faf3543,-1.284713,36.818812,Caf,KE
4dcc332cd4c088f3a80cdd0d,-1.285751,36.821645,Nightclub,KE
4dccbc73d22deadedd28b8b0,-1.322266,36.896988,General Travel,KE
4dcd05b7e4cd130e1642cc8e,-1.298985,36.836668,Fast Food Restaurant,KE
4dcd0ec91f6eb1227056faa0,-1.30937,36.811498,Building,KE
4dcd587945ddbe15f86d66f5,-1.282653,36.825282,African Restaurant,KE
4dcd5cd0d22deadedd36d7cd,-1.283007,36.823951,Department Store,KE
4dcd64838877851243dd2606,-1.301343,36.768376,Pub,KE
4dcd6eb445ddbe15f86f7ae8,-1.286605,36.880101,Hotel,KE
4dce1a377d8b975f18c70046,-1.218525,36.878547,College Science Building,KE
4dce2c84814d3a709e6b6e74,-1.31253,36.81644,Caf,KE
4dce2d6f7d8b975f18c87cef,-1.265064,36.80055,College & University,KE
4dce3b237d8b975f18c98344,-1.308753,36.778192,Flea Market,KE
4dce3e1722718eed7a3334fd,-1.275195,36.830991,Road,KE
4dcea8b2c65bdac713668e37,-1.285204,36.824715,Internet Cafe,KE
4dcf698d45ddbe15f8a2cd28,-1.220267,36.894974,Home (private),KE
4dcfa073d164679b8d1d7fd9,-1.299783,36.786813,Church,KE
4dcfa5b781dcbea2995f6b99,-1.303312,36.789007,Residential Building (Apartment / Condo),KE
4dcfce4d22718eed7a5a1cd5,-1.291875,36.787336,Home (private),KE
4dd0aa921f6eb12270b11591,-1.23734,36.844373,Event Space,KE
4dd0edd6ae603b786d6a407b,-1.262983,36.800334,College Technology Building,KE
4dd0f398ae603b786d6aaa0a,-1.327453,36.789748,Medical Center,KE
4dd112a0887785124435b533,-1.269203,36.824327,Design Studio,KE
4dd119ad887785124436703e,-1.264684,36.763394,Bank,KE
4dd129dbd4c065592fbf3a12,-1.298673,36.762441,Burger Joint,KE
4dd14eac22718eed7a7cf7ec,-1.278718,36.814705,Parking,KE
4dd153b4fa7664b7c6ecbec4,-1.264416,36.784651,Restaurant,KE
4dd16b75b0fb25f6e38b0c0b,-1.322053,36.841175,Home (private),KE
4dd1e8fee4cd7f7178be118c,-1.293832,36.795454,Hospital,KE
4dd1f5d1ae60fb3f53b6b2be,-1.212944,36.893059,Bus Station,KE
4dd204366365cd4836e12460,-1.227668,36.916482,Home (private),KE
4dd22ac945dd9197faef378a,-1.250053,36.844919,Other Great Outdoors,KE
4dd22bc51f6ef5f6ccce5b66,-1.278948,36.817381,College Academic Building,KE
4dd24a60d22d67839c578fbb,-1.261808,36.80258,Movie Theater,KE
4dd27d46d22d67839c5c9352,-1.300953,36.780467,Miscellaneous Shop,KE
4dd27db245dd9197faf69558,-1.27854,36.821242,Road,KE
4dd28130ae60fb3f53c2147d,-1.306951,36.827459,Lounge,KE
4dd28351c65b9d071f9da573,-1.281196,36.814636,Church,KE
4dd2bd6c1fc75203eccbfd32,-1.306745,36.822824,Medical Center,KE
4dd2bd9bc65b9d071fa38017,-1.271809,36.803563,Residential Building (Apartment / Condo),KE
4dd39d7ad1643acaa1e494a9,-1.234953,36.811981,Office,KE
4dd3b95e091afbe9b9cb56eb,-1.298521,36.764614,Building,KE
4dd3c5037d8b6704c7ac940a,-1.314834,36.808877,Home (private),KE
4dd4056745dd98b61e7a48b7,-1.282904,36.8193,African Restaurant,KE
4dd4061c52b1f6bad4149858,-1.286851,36.737894,Event Space,KE
4dd4a220d22d8e00fccec8b6,-1.329198,36.924486,Airport Gate,KE
4dd4f3c4091abf67d5f09cb4,-1.283561,36.819644,Home (private),KE
4dd5b9361838b8561cbc7d6b,-1.264318,36.804231,Lounge,KE
4dd63ccb52b1a5c6442e058a,-1.216853,36.878378,College Auditorium,KE
4dd66ae4e4cd37c8939174b5,-1.260732,36.802085,Building,KE
4dd66dbbae60680f14ece003,-1.282672,36.816224,College Administrative Building,KE
4dd691e31f6ee146830c7537,-1.316321,36.815225,Building,KE
4dd699eb1f6ee146830d699c,-1.294909,36.798558,Chinese Restaurant,KE
4dd75b901fc7d8d866422f36,-1.313178,36.829913,Gas Station / Garage,KE
4dd75f7d1fc7d8d86642468f,-1.328347,36.825614,Residential Building (Apartment / Condo),KE
4dd8134a1f6ee14683336319,-1.270688,36.798399,Bar,KE
4dd8384a52b1a5c644615a5b,-1.322122,36.801481,Bar,KE
4dd8f147e4cd37c893d079e7,-1.302714,36.776456,Coffee Shop,KE
4dd91dc545ddced820af703e,-1.325913,36.881929,Pub,KE
4dd939aee4cd37c893d702cb,-1.255693,36.694787,Bus Station,KE
4dd94cf37d8b3226641d0b4d,-1.284925,36.827485,Bus Station,KE
4dd9f574c65bee535aef4a6b,-1.250096,36.865203,College Auditorium,KE
4dda070445ddced820c53034,-1.247225,36.872553,Government Building,KE
4dda1598b0fb8af380c59be5,-1.287156,36.741141,Gas Station / Garage,KE
4dda314081dcd5bca5aedaf1,-1.283561,36.819644,Home (private),KE
4dda4ad36365d68ffa91fd31,-1.256847,36.856728,Police Station,KE
4dda7969ae60680f154e93e2,-1.19365,36.936297,Harbor / Marina,KE
4dda7a378877f11510313720,-1.287599,36.741541,Bus Line,KE
4dda84863151cc0a7d451082,-1.283233,36.822267,Building,KE
4dda9b4145ddced820d20599,-1.30904,36.797354,Professional & Other Places,KE
4ddb3f70814ddef7274edfd1,-1.290081,36.805919,Restaurant,KE
4ddb480e45dd588c721d9f8c,-1.261486,36.795933,Dentist's Office,KE
4ddb80ab22719ef54b4a6fb0,-1.311828,36.779823,Building,KE
4ddbb36dfa7637ab73e04eb0,-1.265832,36.808112,Convenience Store,KE
4ddc805a52b177ff2e6f2869,-1.33032,36.924148,Airport,KE
4ddc8df422713339cd193976,-1.315958,36.822601,Professional & Other Places,KE
4ddccc20d22df171990643b5,-1.300995,36.806176,Medical Center,KE
4ddcf22422713339cd20a494,-1.284962,36.790374,Bridal Shop,KE
4ddd06dbfa766a6d794959ff,-1.217877,36.892986,Hostel,KE
4ddd220f52b177ff2e7c4286,-1.257739,36.818091,Gift Shop,KE
4ddd2945c65bfd579e232220,-1.257638,36.818289,Salon / Barbershop,KE
4ddd49ecd164236dd387326a,-1.259621,36.817828,BBQ Joint,KE
4ddd54d01838779139849217,-1.268502,36.818343,College Auditorium,KE
4ddd5d5d52b155583dea10ac,-1.285472,36.824842,Hotel,KE
4ddd5f5c7d8bb03c069c3317,-1.307434,36.81297,Housing Development,KE
4dddedc1b0fbc2c4eef7f3db,-1.282967,36.816503,Capitol Building,KE
4dde726152b155583e01e649,-1.285636,36.82055,Fried Chicken Joint,KE
4ddf410018388714bb641c12,-1.26124,36.802406,Shop & Service,KE
4ddf8df2227140b90502fcf6,-1.302385,36.810982,Office,KE
4ddfa0531fc79ef4589f697f,-1.287321,36.77067,Burger Joint,KE
4ddfb37945dd95acd4f57e91,-1.286824,36.835301,Bus Station,KE
4ddfb79aae60c015c09cc809,-1.283099,36.821077,Building,KE
4ddfb9c618388714bb6ee516,-1.277698,36.807317,High School,KE
4ddfe4c08877e0877e658d47,-1.293014,36.787727,Bar,KE
4de016447d8b84d5dc635ee3,-1.329003,36.800939,Nightlife Spot,KE
4de07e8a45dd3eae8770b9d3,-1.284044,36.894215,Professional & Other Places,KE
4de0cd817d8b84d5dc74f8f1,-1.210159,36.893763,Bus Station,KE
4de0ce501f6ece6473835761,-1.209202,36.893884,Bus Station,KE
4de0ddb4d22d2a7955786618,-1.267432,36.817244,Fast Food Restaurant,KE
4de0ebbd7d8b84d5dc77a594,-1.28468,36.825316,Road,KE
4de11dcafa76425c5429a8dd,-1.259621,36.786413,African Restaurant,KE
4de2211fae60e7f3abe7d39c,-1.260283,36.802215,General Entertainment,KE
4de267f845dd180ae54503c3,-1.285857,36.883915,Boutique,KE
4de33abc1f6e3190cd2370e5,-1.265202,36.800198,Internet Cafe,KE
4de349cf091a303de31ce46c,-1.312687,36.806928,Hospital,KE
4de3a75ab0fb267148a1a03d,-1.287755,36.82748,Miscellaneous Shop,KE
4de3c36f7d8b2547eb22bfde,-1.285884,36.820325,Fried Chicken Joint,KE
4de493d8ae60e7f3ac21bca4,-1.264305,36.790574,Tech Startup,KE
4de4962f45dd180ae578dfdf,-1.289381,36.886261,Tech Startup,KE
4de4ca3445dd180ae57cb23f,-1.310472,36.833945,Indian Restaurant,KE
4de5390452b1d38d29b00a7d,-1.265026,36.800939,Other Great Outdoors,KE
4de73291887710a065b1db76,-1.279965,36.816251,College Academic Building,KE
4de739ffd4c0086a9505677d,-1.331546,36.862586,Bank,KE
4de741fb6365894c511ffe62,-1.298529,36.811366,Building,KE
4de7541e52b19568bd7969ba,-1.287439,36.826297,Bank,KE
4de78772091a2770a1868958,-1.256289,36.778879,Office,KE
4de7a5b645dda9e8a330d0fc,-1.262936,36.802806,Gas Station / Garage,KE
4de7c39bd22dc38f1ee91592,-1.280444,36.818511,Hotel,KE
4de8b654d1648c9796389e5b,-1.295312,36.803532,Doctor's Office,KE
4de8bdf4e4cd157353fcd806,-1.329833,36.868901,Building,KE
4de8dc7552b1741cdb0c793e,-1.303569,36.784661,Convenience Store,KE
4de8ddae45dde4a28d59e26b,-1.277806,36.817782,Office,KE
4de8e3f77d8b02ee9f208036,-1.287709,36.873838,Fast Food Restaurant,KE
4de8ec8c1f6e9b537718a601,-1.282658,36.873459,Home (private),KE
4de8fb8fae60293318fdccc6,-1.286204,36.826229,Bar,KE
4de90a2d1f6e9b53771c1828,-1.308736,36.818322,Bus Line,KE
4de9ff72c65be8091d998f08,-1.287022,36.825293,Mall,KE
4dea3233b0fb8293f7cd2bcb,-1.300163,36.810115,Gym / Fitness Center,KE
4dea3539b0fb8293f7cd7f61,-1.297068,36.80534,College Auditorium,KE
4dea383588774880e3155a2a,-1.298177,36.762205,Ice Cream Shop,KE
4dea3de188774880e315fc99,-1.303141,36.812696,Office,KE
4dea6d11ae60e98923585102,-1.282852,36.824257,Bus Station,KE
4dea6e307d8b6c7a533ecb3c,-1.267849,36.83041,Home (private),KE
4dea726e45dd3993a88bec41,-1.245131,36.871386,Beer Garden,KE
4deb065b1f6e3ddebddd3264,-1.28755,36.87831,Church,KE
4deb4d377d8b6c7a5355fe89,-1.290145,36.75838,Convention Center,KE
4deb57ae1f6e3ddebde3d0ca,-1.314636,36.904125,College & University,KE
4deb645918386283a3fdc12d,-1.33473,36.750797,Music Venue,KE
4deb6bbd88774880e33599c0,-1.311548,36.836137,Fried Chicken Joint,KE
4deb8c96c65be8091dc24731,-1.29217,36.85305,Bar,KE
4deb9a5522713dd973b14838,-1.294083,36.79368,Ethiopian Restaurant,KE
4dec7286d4c00071b8562d95,-1.221391,36.855514,School,KE
4decb599b0fb8293f80d18f5,-1.263686,36.727688,Police Station,KE
4decb61ad22da22d4f0bed18,-1.257521,36.82882,Automotive Shop,KE
4decc71488774880e35643ba,-1.284804,36.82277,Building,KE
4decca0b22713dd973ce19d2,-1.274913,36.849124,Shop & Service,KE
4decd61ecc3f7f0e461f5e8d,-1.299787,36.790332,Restaurant,KE
4decdc03091af39272764a7f,-1.285218,36.822643,Burger Joint,KE
4dece4b0d22da22d4f106a9e,-1.300469,36.834218,Police Station,KE
4dece9e722713dd973d11cbc,-1.302908,36.831317,Automotive Shop,KE
4ded1464e4cd5dfe5a5e9c43,-1.282721,36.824725,Bus Station,KE
4dedc5f163657045c02dfcd1,-1.303335,36.747408,Mall,KE
4dedd79bd164f9a5c6821a00,-1.323712,36.833162,Office,KE
4dedffb67d8bb21674306d1a,-1.299177,36.815751,Building,KE
4dee26c0b0fb43a756ec7055,-1.326327,36.843469,Gym / Fitness Center,KE
4dee39b3fa76b21ed995c5a2,-1.316002,36.834702,Multiplex,KE
4dee6d43e4cd032b18a26325,-1.28338,36.83041,Home (private),KE
4deeff0ad164e99c7b316b45,-1.263278,36.838497,Road,KE
4deeff7cb0fbe76bc3b9f6f2,-1.260003,36.843217,Police Station,KE
4def21fcc65bf3f03e8f3e08,-1.300397,36.806034,Emergency Room,KE
4def24dd227170314b9cc008,-1.285096,36.818017,Building,KE
4def5f8b183822e7cf36d9cb,-1.281453,36.822407,General Travel,KE
4def6c14fa76c1ceac9121f2,-1.259199,36.884217,Home (private),KE
4defa5a7887754a6af97f1dc,-1.283802,36.821423,Fast Food Restaurant,KE
4defd813c65bf3f03ea0c0b1,-1.21412,36.896368,Pub,KE
4df0461f1838e429ae4f8eb9,-1.212511,36.866542,Professional & Other Places,KE
4df0722bd22d433687178f7b,-1.28602,36.796674,Office,KE
4df08b43ae6066d602d6508f,-1.307999,36.765635,Other Great Outdoors,KE
4df09d081838e429ae50bed6,-1.287245,36.828296,Juice Bar,KE
4df09d131838e429ae50bf0c,-1.329669,36.868959,Caf,KE
4df0c145c65b0270f3a4d85c,-1.285009,36.824063,Miscellaneous Shop,KE
4df0cbaf52b1faff632591c3,-1.19365,36.936297,Track,KE
4df0cfead22d433687190d85,-1.309472,36.812665,College Administrative Building,KE
4df0ebbab3ad0e1c01555dff,-1.268131,36.828017,Road,KE
4df0fdb17d8ba370a011d24c,-1.285136,36.828941,Bus Station,KE
4df1b57f63659543662bd0da,-1.25867,36.789393,Building,KE
4df1bd61e4cda09e6d9bdab3,-1.308269,36.762268,Park,KE
4df20e3b45dd4e26933a8c3b,-1.291424,36.811282,Building,KE
4df22d1ec65bf55ee52666cf,-1.288943,36.796664,Road,KE
4df235ddae609e69dd947654,-1.272527,36.802028,Residential Building (Apartment / Condo),KE
4df2466efa76abc3d8683088,-1.283721,36.824825,Bar,KE
4df272b1d1649c8a28df5456,-1.299206,36.791378,Cocktail Bar,KE
4df276a8d1649c8a28df6c28,-1.312386,36.778292,Neighborhood,KE
4df28671d22d8c5470da91d8,-1.271398,36.821555,Nightlife Spot,KE
4df3171dd22d8c5470dcb918,-1.301189,36.792546,Middle School,KE
4df31d4cfa76abc3d86bdee6,-1.314181,36.898148,Bakery,KE
4df3265dd1649c8a28e216bc,-1.282894,36.821487,Bank,KE
4df3be4f7d8b18e172301f11,-1.283486,36.78706,Residential Building (Apartment / Condo),KE
4df3cc91c65bf55ee52d28b5,-1.294613,36.798625,Nightclub,KE
4df3db20fa76abc3d86e8174,-1.285764,36.8964,Bar,KE
4df479711f6e818dae0461ba,-1.315019,36.798107,Home (private),KE
4df497ebd1649c8a28e6f6fc,-1.307609,36.776564,Home (private),KE
4df4e9dbb61cbd3ec0204720,-1.306846,36.815183,Residential Building (Apartment / Condo),KE
4df5b34ae4cda09e6daa6c7c,-1.318061,36.897886,Shoe Store,KE
4df5ddb722718759f82770ac,-1.312608,36.816713,Shop & Service,KE
4df61fdc091aacc4e85ca228,-1.2881,36.838502,Road,KE
4df638aa1520a5483e6cede8,-1.225126,36.884183,Hotel,KE
4df64c3bd1649c8a28ec238f,-1.204978,36.894698,Bar,KE
4df6f7731838c789e8b81786,-1.275248,36.813343,Hotel,KE
4df725a47d8b5f396ac5213b,-1.3041,36.826749,Automotive Shop,KE
4df74a8e887712d325cf8ba7,-1.325007,36.84895,Travel Lounge,KE
4df78188d22df20cc2d79d89,-1.190801,36.798107,Home (private),KE
4df8751715205e0e3f6b3da0,-1.259292,36.85499,General College & University,KE
4df87ba2d22dca97c5984a73,-1.327138,36.845723,Hotel Bar,KE
4df8bf2fd4c02ad73419824e,-1.300374,36.823322,Bank,KE
4df8e02f45dd816eb5a84a06,-1.327,36.845839,Hotel,KE
4df8e32f1495b7db1b0ffe02,-1.294781,36.788082,Diner,KE
4df9b3fe6284226247b422fc,-1.298788,36.790653,Event Space,KE
4df9c54a8877b30c3985ca24,-1.29916,36.796843,Building,KE
4df9db6318a8ab1870bc370c,-1.274094,36.817471,Vegetarian / Vegan Restaurant,KE
4df9f0f5d164bbe546154e19,-1.295673,36.756491,College Classroom,KE
4dfa0c5bb0fb0401c7f70fa9,-1.307199,36.741956,Other Great Outdoors,KE
4dfa2ced483b4bf3e57ab4e9,-1.287274,36.810509,Church,KE
4dfae7ee091a71fa7f6d7d13,-1.284445,36.822256,Building,KE
4dfb5f3f814dec2320a344a4,-1.285314,36.812664,Building,KE
4dfb8bcf2271baece2438115,-1.314649,36.819644,Home (private),KE
4dfc6c07aeb7594e861ffc75,-1.293545,36.807565,Church,KE
4dfc9202b0fb84d7ace08288,-1.285014,36.823919,Cosmetics Shop,KE
4dfd047762846d918b965a88,-1.198695,36.922275,Shop & Service,KE
4dfd7b601fc71fb37df9bdd7,-1.313545,36.890802,Spiritual Center,KE
4dfe1cb2d164848a03fb249d,-1.294295,36.860726,Police Station,KE
4dfe1d65b3ad26d18ba0283a,-1.282654,36.815915,School,KE
4dfe1db3149599f28fd04ab2,-1.294922,36.861299,Bank,KE
4dfe1e47d4c001cca372054a,-1.295551,36.858246,Convenience Store,KE
4dfe5b9852b1267800ce0c90,-1.324237,36.827422,Building,KE
4dfebf1445dd3320c8811d08,-1.281488,36.81461,Office,KE
4dfed660a809baedbd8fd47d,-1.234808,36.871087,Hotel,KE
4dfee83dd164f31b7bcfb468,-1.291894,36.81266,Courthouse,KE
4dfefb9388779f08f9973ed9,-1.281993,36.822843,Caf,KE
4dff0a38d164f31b7bcffae0,-1.283604,36.824841,African Restaurant,KE
4dff1f5f1f6e4f313a7615ba,-1.257652,36.818112,Vegetarian / Vegan Restaurant,KE
4dff25c4fa76b5130d77f0d7,-1.288235,36.888443,Bar,KE
4dff40ee81dc5e4fd69e1a6b,-1.328679,36.82909,University,KE
4dff62d0fa76b5130d78c412,-1.284561,36.82134,Office,KE
4dffa8761fc7b17a95532d69,-1.277103,36.814252,Pub,KE
4dffbf14cc3ff2aa1b2738cd,-1.24579,36.755015,Home (private),KE
4dffbf5ccc3ff2aa1b273908,-1.29167,36.774578,African Restaurant,KE
4dffc028cc3ff2aa1b273956,-1.294204,36.805719,Medical Center,KE
4e005befe4cd338f2d44a049,-1.29335,36.792914,Government Building,KE
4e006e60315175a7f3f9d61a,-1.301081,36.83145,Capitol Building,KE
4e007c6eb0fbdf39a4542d51,-1.269761,36.839658,Bar,KE
4e008f4c1f6ef39c29403eda,-1.283963,36.82025,Arts & Crafts Store,KE
4e00bf0fb0fbdf39a4551a40,-1.28068,36.818984,Bar,KE
4e00c5dce4cd338f2d45f68b,-1.257453,36.803106,Pizza Place,KE
4e018e711f6ef39c294394b5,-1.30758,36.819999,Medical Center,KE
4e01b4b61495692a4bb9a6d7,-1.278367,36.805083,Garden,KE
4e01bb781838cb6a1acec974,-1.317521,36.816456,African Restaurant,KE
4e01bcb71495692a4bb9b87b,-1.33127,36.862775,Food,KE
4e01cebf88776240d3f5ef68,-1.287993,36.825845,Building,KE
4e01ec1dcc3fe1394f7141df,-1.336306,36.894536,Building,KE
4e01f4b4a8091704343a5543,-1.296657,36.763755,Pool,KE
4e01fb006365ba98ee33c304,-1.19274,36.893393,Housing Development,KE
4e02006a814d9dac7d52f501,-1.307833,36.823327,Housing Development,KE
4e0227e622717718d3a2b93c,-1.274251,36.81195,Road,KE
4e023875b0fbdf39a459d9dc,-1.264538,36.792233,Dim Sum Restaurant,KE
4e023b4352b1ac66aaccb36c,-1.290058,36.894974,Home (private),KE
4e02408752b1ac66aaccc514,-1.26303,36.80335,Japanese Restaurant,KE
4e02f7dcd164b56ad5328f31,-1.327576,36.782674,Other Great Outdoors,KE
4e03054b8877909501419aad,-1.269827,36.797468,Office,KE
4e03598218389833c59660d9,-1.284398,36.821508,Caf,KE
4e03753ee4cdbd9a51778bfc,-1.311537,36.814116,Fast Food Restaurant,KE
4e04407a8877fc58724dae7e,-1.255182,36.722123,General Travel,KE
4e0442b07d8b00eb78c0d0e4,-1.310281,36.827277,Tea Room,KE
4e044766315168be7fd7d6d1,-1.282183,36.820472,Bank,KE
4e0450f88877fc58724dcf55,-1.290497,36.825724,Internet Cafe,KE
4e04521c62e1b12875a8657a,-1.201417,36.919241,Office,KE
4e0483efd22d4cebf3733d80,-1.309816,36.827781,Other Great Outdoors,KE
4e048783922e0187de4d7743,-1.323055,36.706524,Pub,KE
4e04b892b61c7592ae7067c1,-1.30129,36.811145,Restaurant,KE
4e059b4bd4c03ae0b9be37cd,-1.262672,36.875347,High School,KE
4e06106fb61c60b0453c20f1,-1.280137,36.817428,Road,KE
4e0661521f6e211033868710,-1.311329,36.74234,Lounge,KE
4e06cb43d4c03ae0b9c66214,-1.292186,36.817896,General Entertainment,KE
4e06e9e652b165b7d7ab52d8,-1.299014,36.763652,Gas Station / Garage,KE
4e0719ae18a8382643b20f63,-1.27725,36.79557,Residential Building (Apartment / Condo),KE
4e073de5ae60a90eabc7a5f3,-1.262588,36.720034,Bus Station,KE
4e07618814959022c8963086,-1.2571,36.803144,Electronics Store,KE
4e082c59a809495e619d67a4,-1.301639,36.776256,Event Space,KE
4e085087814da2255b47f167,-1.314649,36.819644,Home (private),KE
4e0902fd18a8382643bd999e,-1.299763,36.824541,Nightclub,KE
4e095c45b61c60b04551900f,-1.286916,36.81466,Gym,KE
4e09a949b61c60b0455384c7,-1.294997,36.809132,Medical Center,KE
4e09c8e4ae60a90eabd7ffaa,-1.200422,36.924452,Movie Theater,KE
4e09ee6fae60a90eabd9759e,-1.280879,36.81747,Arts & Entertainment,KE
4e09f4f32271dfa46bbfdb86,-1.330737,36.862817,Road,KE
4e0a36cd62e1198aafe17fc7,-1.233979,36.87218,Road,KE
4e0ab1941f6e56a6810545fb,-1.264095,36.907548,Bus Station,KE
4e0ace5222713e13018c9460,-1.291181,36.820146,City Hall,KE
4e0b1287149563b079c33e43,-1.318327,36.840162,Coworking Space,KE
4e0b512d6284a62b5bc02105,-1.296709,36.827695,Chinese Restaurant,KE
4e0bee9dd4c09fcb6c89d9d9,-1.263804,36.738556,Road,KE
4e0bf038e4cd92446c433832,-1.328019,36.882639,BBQ Joint,KE
4e0c3e9218509581f763d397,-1.283808,36.823873,Sporting Goods Shop,KE
4e0c5f2ed22d9e3b2fc16f55,-1.28333,36.818297,Office,KE
4e0c836bb0fb54bdc8938188,-1.283114,36.822103,General Entertainment,KE
4e0cb7591520021e1e59a509,-1.283963,36.823297,Caf,KE
4e0d5b2c814d61a706ff70b4,-1.28984,36.792752,Building,KE
4e0d90ab1838f62321bbe857,-1.282906,36.810961,African Restaurant,KE
4e0da79318a8bf9784c472a0,-1.2854,36.827958,Music Store,KE
4e0da9001520c4d8cef9618f,-1.256868,36.802869,Caf,KE
4e0db19eb61c3fe477fb61cd,-1.280229,36.810278,College Residence Hall,KE
4e0de93d14956c6284f4a2cd,-1.299599,36.79323,Automotive Shop,KE
4e0dffc3fa76d62f44442949,-1.284927,36.822491,Caf,KE
4e0e4010a8099e1526073423,-1.302032,36.814584,Lounge,KE
4e0eb251d164fff335ae5a71,-1.298763,36.789645,University,KE
4e0eb6e2b3adc5405fcc3b61,-1.306719,36.814542,African Restaurant,KE
4e0ed3ad52b1b27c1b8aeb57,-1.320038,36.83927,Hospital,KE
4e0f04a045ddc2c6d17d4ca5,-1.287544,36.878356,Beer Garden,KE
4e0f2d24d22d8582bdc61d03,-1.284438,36.823516,Candy Store,KE
4e0f328b14956c6285019eb6,-1.298741,36.762284,Miscellaneous Shop,KE
4e1085b31838f8ad8152db32,-1.330287,36.863196,Vegetarian / Vegan Restaurant,KE
4e119c51b0fbfef99b930464,-1.298281,36.762074,Clothing Store,KE
4e11a088aeb74afe60be977b,-1.27767,36.833745,Residential Building (Apartment / Condo),KE
4e11a416483bee47ff33555f,-1.283271,36.879872,Bank,KE
4e128aba62e1d997a6a9cedd,-1.287552,36.784189,Road,KE
4e12dba0c65b4a49f3197153,-1.215229,36.893096,Hospital,KE
4e13099c7d8b4d5613e8768e,-1.223316,36.899803,African Restaurant,KE
4e145bd5ae60fe00dfde22f3,-1.287437,36.825369,Hot Dog Joint,KE
4e1474f2d4c023f7053f0caf,-1.282187,36.821939,Design Studio,KE
4e14aac388777cd5da360f10,-1.298871,36.836857,Food Court,KE
4e1510aab3ad47cbbb6193d4,-1.32056,36.836198,Church,KE
4e15150ab3ad47cbbb619795,-1.294812,36.861826,Government Building,KE
4e155914483b0d8571d079ae,-1.330287,36.862754,Office,KE
4e15682eaeb733245ecef489,-1.297763,36.759634,Coworking Space,KE
